[
    {
        "name": "淡水漁人碼頭",
        "type": "walk",
        "city": "新北",
        "district": "淡水區",
        "description": "著名日落景點，有特色餐廳、購物商圈及渡船頭，適合海邊散步",
        "tags": ["海景", "散步", "美食", "攝影", "日落"],
        "hours": "依場館或店家為準",
        "cost": "依消費或免費",
        "geo": {"lat": null, "lng": null},
        "gmaps": "https://maps.app.goo.gl/?q=%E6%B7%A1%E6%B0%B4%E6%BC%81%E4%BA%BA%E7%A2%BC%E9%A0%AD"
    },
    {
        "name": "淡水紅毛城",
        "type": "spot",
        "city": "新北",
        "district": "淡水區",
        "description": "清代古堡，為淡水重要歷史建築，可俯瞰淡水河口",
        "tags": ["古蹟", "歷史", "文化", "攝影"],
        "hours": "依場館或店家為準",
        "cost": "依消費或免費",
        "geo": {"lat": null, "lng": null},
        "gmaps": "https://maps.app.goo.gl/?q=%E6%B7%A1%E6%B0%B4%E7%B4%85%E6%AF%9B%E5%9F%8E"
    },
    {
        "name": "淡水老街",
        "type": "spot",
        "city": "新北",
        "district": "淡水區",
        "description": "充滿小吃與特色商店的老街，為遊客必訪之地",
        "tags": ["美食", "購物", "文化", "散步", "老街"],
        "hours": "依場館或店家為準",
        "cost": "依消費或免費",
        "geo": {"lat": null, "lng": null},
        "gmaps": "https://maps.app.goo.gl/?q=%E6%B7%A1%E6%B0%B4%E8%80%81%E8%A1%97"
    },
    {
        "name": "野柳地質公園",
        "type": "walk",
        "city": "新北",
        "district": "萬里區",
        "description": "以奇特岩石地形聞名，如女王頭、仙女鞋等，沿海步道景觀壯闊",
        "tags": ["地質", "攝影", "自然", "海景", "散步"],
        "hours": "依場館或店家為準",
        "cost": "依消費或免費",
        "geo": {"lat": null, "lng": null},
        "gmaps": "https://maps.app.goo.gl/?q=%E9%87%8E%E6%9F%B3%E5%9C%B0%E8%B3%AA%E5%85%AC%E5%9C%92"
    },
    {
        "name": "萬里螺絲灣",
        "type": "walk",
        "city": "新北",
        "district": "萬里區",
        "description": "海灣景觀優美，適合戶外活動與賞鳥",
        "tags": ["海景", "自然", "戶外", "攝影", "休閒"],
        "hours": "依場館或店家為準",
        "cost": "依消費或免費",
        "geo": {"lat": null, "lng": null},
        "gmaps": "https://maps.app.goo.gl/?q=%E8%9E%BA%E7%B5%B2%E7%81%A3"
    },
    {
        "name": "萬里烏龍瀑布",
        "type": "walk",
        "city": "新北",
        "district": "萬里區",
        "description": "隱藏在山林中的瀑布，適合健行與探險",
        "tags": ["瀑布", "健行", "自然", "攝影", "戶外"],
        "hours": "依場館或店家為準",
        "cost": "依消費或免費",
        "geo": {"lat": null, "lng": null},
        "gmaps": "https://maps.app.goo.gl/?q=%E4%B9%8C%E9%BE%8D%E7%80%91%E5%B8%83"
    },
    {
        "name": "金山老街",
        "type": "spot",
        "city": "新北",
        "district": "金山區",
        "description": "保留傳統建築與小吃文化的老街，有名的金山溫泉也在附近",
        "tags": ["美食", "文化", "購物", "老街"],
        "hours": "依場館或店家為準",
        "cost": "依消費或免費",
        "geo": {"lat": null, "lng": null},
        "gmaps": "https://maps.app.goo.gl/?q=%E9%87%91%E5%B1%B1%E8%80%81%E8%A1%97"
    },
    {
        "name": "金山溫泉",
        "type": "spot",
        "city": "新北",
        "district": "金山區",
        "description": "北台灣著名的溫泉區，泉質優良，適合泡湯放鬆",
        "tags": ["溫泉", "休閒", "放鬆", "健康"],
        "hours": "依場館或店家為準",
        "cost": "依消費或免費",
        "geo": {"lat": null, "lng": null},
        "gmaps": "https://maps.app.goo.gl/?q=%E9%87%91%E5%B1%B1%E6%BA%AB%E6%B3%89"
    },
    {
        "name": "金山青年活動中心",
        "type": "spot",
        "city": "新北",
        "district": "金山區",
        "description": "提供多元活動與展覽的青年中心，適合家庭與團體參觀",
        "tags": ["活動", "展覽", "親子", "文化"],
        "hours": "依場館或店家為準",
        "cost": "依消費或免費",
        "geo": {"lat": null, "lng": null},
        "gmaps": "https://maps.app.goo.gl/?q=%E9%87%91%E5%B1%B1%E9%9D%92%E5%B9%B4%E6%B4%BB%E5%8B%95%E4%B8%AD%E5%BF%83"
    },
    {
        "name": "板橋林家花園",
        "type": "spot",
        "city": "新北",
        "district": "板橋區",
        "description": "清代古典園林，為台灣重要文化資產，園景優美",
        "tags": ["古蹟", "文化", "攝影", "園林"],
        "hours": "依場館或店家為準",
        "cost": "依消費或免費",
        "geo": {"lat": null, "lng": null},
        "gmaps": "https://maps.app.goo.gl/?q=%E6%9D%BF%E6%A9%8B%E6%9E%97%E5%AE%B6%E8%8A%B1%E5%9C%92"
    },
    {
        "name": "板橋435藝文特區",
        "type": "spot",
        "city": "新北",
        "district": "板橋區",
        "description": "結合藝術、文化與商業的多功能園區，經常舉辦展覽與活動",
        "tags": ["藝術", "展覽", "文化", "親子"],
        "hours": "依場館或店家為準",
        "cost": "依消費或免費",
        "geo": {"lat": null, "lng": null},
        "gmaps": "https://maps.app.goo.gl/?q=435%E8%97%9D%E6%96%87%E7%89%B9%E5%8D%80"
    },
    {
        "name": "板橋車站",
        "type": "spot",
        "city": "新北",
        "district": "板橋區",
        "description": "北台灣重要交通樞紐，周邊商圈繁榮，購物與美食豐富",
        "tags": ["交通", "購物", "美食", "商圈"],
        "hours": "依場館或店家為準",
        "cost": "依消費或免費",
        "geo": {"lat": null, "lng": null},
        "gmaps": "https://maps.app.goo.gl/?q=%E6%9D%BF%E6%A9%8B%E8%BB%8A%E7%AB%99"
    },
    {
        "name": "三芝白沙灣",
        "type": "walk",
        "city": "新北",
        "district": "三芝區",
        "description": "海灘景觀優美，適合戶外活動與賞日落",
        "tags": ["海景", "戶外", "攝影", "休閒", "沙灘"],
        "hours": "依場館或店家為準",
        "cost": "依消費或免費",
        "geo": {"lat": null, "lng": null},
        "gmaps": "https://maps.app.goo.gl/?q=%E7%99%BD%E6%B2%99%E7%81%A3"
    },
    {
        "name": "三芝老街",
        "type": "spot",
        "city": "新北",
        "district": "三芝區",
        "description": "保留傳統建築與小吃文化的老街，適合漫步與品嚐地方美食",
        "tags": ["美食", "文化", "購物", "散步", "老街"],
        "hours": "依場館或店家為準",
        "cost": "依消費或免費",
        "geo": {"lat": null, "lng": null},
        "gmaps": "https://maps.app.goo.gl/?q=%E4%B8%89%E8%8A%9D%E8%80%81%E8%A1%97"
    },
    {
        "name": "三芝海水浴場",
        "type": "walk",
        "city": "新北",
        "district": "三芝區",
        "description": "夏季熱門的海水浴場，適合全家大小遊玩",
        "tags": ["海水浴", "戶外", "休閒", "親子", "海灘"],
        "hours": "依場館或店家為準",
        "cost": "依消費或免費",
        "geo": {"lat": null, "lng": null},
        "gmaps": "https://maps.app.goo.gl/?q=%E4%B8%89%E8%8A%9D%E6%B5%B7%E6%B0%B4%E6%B5%B4%E5%A0%B4"
    },
    {
        "name": "八里左岸公園",
        "type": "walk",
        "city": "新北",
        "district": "八里區",
        "description": "位於淡水河畔，適合騎車、散步與賞鳥的河濱公園",
        "tags": ["公園", "戶外", "休閒", "攝影", "腳踏車"],
        "hours": "依場館或店家為準",
        "cost": "依消費或免費",
        "geo": {"lat": null, "lng": null},
        "gmaps": "https://maps.app.goo.gl/?q=%E5%89%8D%E5%B7%A6%E5%B2%B8%E5%85%AC%E5%9C%92"
    },
    {
        "name": "八里十三行博物館",
        "type": "spot",
        "city": "新北",
        "district": "八里區",
        "description": "展示清代十三行歷史與文化的博物館",
        "tags": ["博物館", "歷史", "文化", "展覽"],
        "hours": "依場館或店家為準",
        "cost": "依消費或免費",
        "geo": {"lat": null, "lng": null},
        "gmaps": "https://maps.app.goo.gl/?q=%E5%8D%81%E4%B8%89%E8%A1%8C%E5%8D%9A%E7%89%A9%E9%A4%A8"
    },
    {
        "name": "八里渡船頭",
        "type": "spot",
        "city": "新北",
        "district": "八里區",
        "description": "可搭乘渡輪前往淡水，體驗淡水河的風光，周邊小吃林立",
        "tags": ["渡輪", "海景", "攝影", "美食"],
        "hours": "依場館或店家為準",
        "cost": "依消費或免費",
        "geo": {"lat": null, "lng": null},
        "gmaps": "https://maps.app.goo.gl/?q=%E6%B8%A1%E6%B0%B4%E6%B8%A1%E8%88%B9%E9%A0%AD"
    },
    {
        "name": "永和樂華夜市",
        "type": "spot",
        "city": "新北",
        "district": "永和區",
        "description": "新北著名夜市，美食種類豐富，深受當地人喜愛",
        "tags": ["夜市", "美食", "購物", "文化"],
        "hours": "依場館或店家為準",
        "cost": "依消費或免費",
        "geo": {"lat": null, "lng": null},
        "gmaps": "https://maps.app.goo.gl/?q=%E6%A8%82%E8%8F%AF%E5%A4%9C%E5%B8%82"
    },
    {
        "name": "永和福和橋",
        "type": "spot",
        "city": "新北",
        "district": "永和區",
        "description": "連接永和與中和的重要橋樑，夜景優美",
        "tags": ["橋樑", "夜景", "攝影", "交通"],
        "hours": "依場館或店家為準",
        "cost": "依消費或免費",
        "geo": {"lat": null, "lng": null},
        "gmaps": "https://maps.app.goo.gl/?q=%E7%A6%8F%E5%92%8C%E6%A9%8B"
    },
    {
        "name": "永和公園",
        "type": "walk",
        "city": "新北",
        "district": "永和區",
        "description": "市區中的綠地，適合休閒與運動",
        "tags": ["公園", "休閒", "運動", "戶外", "散步"],
        "hours": "依場館或店家為準",
        "cost": "依消費或免費",
        "geo": {"lat": null, "lng": null},
        "gmaps": "https://maps.app.goo.gl/?q=%E6%B0%B8%E5%92%8C%E5%85%AC%E5%9C%92"
    },
    {
        "name": "中和景安站",
        "type": "spot",
        "city": "新北",
        "district": "中和區",
        "description": "周邊商圈繁榮，購物與美食豐富的交通節點",
        "tags": ["交通", "購物", "美食", "商圈"],
        "hours": "依場館或店家為準",
        "cost": "依消費或免費",
        "geo": {"lat": null, "lng": null},
        "gmaps": "https://maps.app.goo.gl/?q=%E6%99%AF%E5%AE%89%E7%AB%99"
    },
    {
        "name": "中和圓通寺",
        "type": "spot",
        "city": "新北",
        "district": "中和區",
        "description": "北台灣著名佛寺，建築宏偉，信眾眾多",
        "tags": ["寺廟", "文化", "宗教", "建築", "靜心"],
        "hours": "依場館或店家為準",
        "cost": "依消費或免費",
        "geo": {"lat": null, "lng": null},
        "gmaps": "https://maps.app.goo.gl/?q=%E5%9C%93%E9%80%9A%E5%AF%BA"
    },
    {
        "name": "中和環球購物中心",
        "type": "spot",
        "city": "新北",
        "district": "中和區",
        "description": "大型購物中心，集結國際品牌與美食",
        "tags": ["購物", "美食", "娛樂", "商圈"],
        "hours": "依場館或店家為準",
        "cost": "依消費或免費",
        "geo": {"lat": null, "lng": null},
        "gmaps": "https://maps.app.goo.gl/?q=%E7%92%B0%E7%90%83%E8%B3%BC%E7%89%A9%E4%B8%AD%E5%BF%83"
    },
    {
        "name": "土城承天禪寺",
        "type": "spot",
        "city": "新北",
        "district": "土城區",
        "description": "清幽的佛寺，適合靜心與參訪，亦是著名賞桐花景點",
        "tags": ["寺廟", "宗教", "文化", "靜心", "健行"],
        "hours": "依場館或店家為準",
        "cost": "依消費或免費",
        "geo": {"lat": null, "lng": null},
        "gmaps": "https://maps.app.goo.gl/?q=%E6%89%BF%E5%A4%A9%E7%A6%AA%E5%AF%BA"
    },
    {
        "name": "土城頂埔公園",
        "type": "walk",
        "city": "新北",
        "district": "土城區",
        "description": "市區中的綠地，適合休閒與運動",
        "tags": ["公園", "休閒", "運動", "戶外", "散步"],
        "hours": "依場館或店家為準",
        "cost": "依消費或免費",
        "geo": {"lat": null, "lng": null},
        "gmaps": "https://maps.app.goo.gl/?q=%E9%A0%82%E5%9F%94%E5%85%AC%E5%9C%92"
    },
    {
        "name": "土城遠東百貨",
        "type": "spot",
        "city": "新北",
        "district": "土城區",
        "description": "大型百貨公司，集結購物、美食與娛樂",
        "tags": ["購物", "美食", "娛樂", "商圈"],
        "hours": "依場館或店家為準",
        "cost": "依消費或免費",
        "geo": {"lat": null, "lng": null},
        "gmaps": "https://maps.app.goo.gl/?q=%E9%81%A0%E6%9D%B1%E7%99%BE%E8%B2%A8"
    },
    {
        "name": "新莊夜市",
        "type": "spot",
        "city": "新北",
        "district": "新莊區",
        "description": "新北著名夜市，美食種類豐富，深受當地人喜愛",
        "tags": ["夜市", "美食", "購物", "文化"],
        "hours": "依場館或店家為準",
        "cost": "依消費或免費",
        "geo": {"lat": null, "lng": null},
        "gmaps": "https://maps.app.goo.gl/?q=%E6%96%B0%E8%8E%8A%E5%A4%9C%E5%B8%82"
    },
    {
        "name": "新莊慈祐宮",
        "type": "spot",
        "city": "新北",
        "district": "新莊區",
        "description": "新莊著名廟宇，信眾眾多，建築精美",
        "tags": ["廟宇", "宗教", "文化", "建築"],
        "hours": "依場館或店家為準",
        "cost": "依消費或免費",
        "geo": {"lat": null, "lng": null},
        "gmaps": "https://maps.app.goo.gl/?q=%E6%85%88%E7%A5%90%E5%AE%AE"
    },
    {
        "name": "新莊體育園區",
        "type": "walk",
        "city": "新北",
        "district": "新莊區",
        "description": "大型體育園區，設施完善，適合運動與休閒",
        "tags": ["體育", "運動", "休閒", "戶外", "公園"],
        "hours": "依場館或店家為準",
        "cost": "依消費或免費",
        "geo": {"lat": null, "lng": null},
        "gmaps": "https://maps.app.goo.gl/?q=%E9%AB%94%E8%82%B2%E5%9C%92%E5%8D%80"
    },
    {
        "name": "樹林夜市",
        "type": "spot",
        "city": "新北",
        "district": "樹林區",
        "description": "新北著名夜市，美食種類豐富，深受當地人喜愛",
        "tags": ["夜市", "美食", "購物", "文化"],
        "hours": "依場館或店家為準",
        "cost": "依消費或免費",
        "geo": {"lat": null, "lng": null},
        "gmaps": "https://maps.app.goo.gl/?q=%E6%A8%B9%E6%9E%97%E5%A4%9C%E5%B8%82"
    },
    {
        "name": "樹林公園",
        "type": "walk",
        "city": "新北",
        "district": "樹林區",
        "description": "市區中的綠地，適合休閒與運動",
        "tags": ["公園", "休閒", "運動", "戶外", "散步"],
        "hours": "依場館或店家為準",
        "cost": "依消費或免費",
        "geo": {"lat": null, "lng": null},
        "gmaps": "https://maps.app.goo.gl/?q=%E6%A8%B9%E6%9E%97%E5%85%AC%E5%9C%92"
    },
    {
        "name": "樹林文物館",
        "type": "spot",
        "city": "新北",
        "district": "樹林區",
        "description": "展示樹林區歷史與文化的博物館",
        "tags": ["博物館", "歷史", "文化", "展覽"],
        "hours": "依場館或店家為準",
        "cost": "依消費或免費",
        "geo": {"lat": null, "lng": null},
        "gmaps": "https://maps.app.goo.gl/?q=%E6%A8%B9%E6%9E%97%E6%96%87%E7%89%A9%E9%A4%A8"
    },
    {
        "name": "三峽老街",
        "type": "spot",
        "city": "新北",
        "district": "三峽區",
        "description": "保留傳統建築與小吃文化的老街，適合漫步與品嚐地方美食",
        "tags": ["美食", "文化", "購物", "散步", "老街"],
        "hours": "依場館或店家為準",
        "cost": "依消費或免費",
        "geo": {"lat": null, "lng": null},
        "gmaps": "https://maps.app.goo.gl/?q=%E4%B8%89%E5%B3%BD%E8%80%81%E8%A1%97"
    },
    {
        "name": "三峽清水祖師廟",
        "type": "spot",
        "city": "新北",
        "district": "三峽區",
        "description": "三峽著名廟宇，信眾眾多，建築精美，有「東方藝術殿堂」之稱",
        "tags": ["廟宇", "宗教", "文化", "建築"],
        "hours": "依場館或店家為準",
        "cost": "依消費或免費",
        "geo": {"lat": null, "lng": null},
        "gmaps": "https://maps.app.goo.gl/?q=%E6%B8%85%E6%B0%B4%E7%A5%96%E5%B8%AB%E5%BB%9F"
    },
    {
        "name": "三峽白雞公園",
        "type": "walk",
        "city": "新北",
        "district": "三峽區",
        "description": "以白雞雕塑聞名的公園，適合家庭遊玩與散步",
        "tags": ["公園", "休閒", "攝影", "親子", "戶外"],
        "hours": "依場館或店家為準",
        "cost": "依消費或免費",
        "geo": {"lat": null, "lng": null},
        "gmaps": "https://maps.app.goo.gl/?q=%E7%99%BD%E9%9B%9E%E5%85%AC%E5%9C%92"
    },
    {
        "name": "鶯歌陶瓷博物館",
        "type": "spot",
        "city": "新北",
        "district": "鶯歌區",
        "description": "展示鶯歌陶瓷歷史與工藝的博物館，設有兒童體驗區",
        "tags": ["博物館", "歷史", "文化", "展覽", "親子"],
        "hours": "依場館或店家為準",
        "cost": "依消費或免費",
        "geo": {"lat": null, "lng": null},
        "gmaps": "https://maps.app.goo.gl/?q=%E9%B6%AF%E6%AD%8C%E9%99%B6%E7%93%B7%E5%8D%9A%E7%89%A9%E9%A4%A8"
    },
    {
        "name": "鶯歌老街",
        "type": "spot",
        "city": "新北",
        "district": "鶯歌區",
        "description": "充滿陶瓷商店與特色小吃的老街，適合漫步與購物",
        "tags": ["美食", "文化", "購物", "散步", "老街", "陶瓷"],
        "hours": "依場館或店家為準",
        "cost": "依消費或免費",
        "geo": {"lat": null, "lng": null},
        "gmaps": "https://maps.app.goo.gl/?q=%E9%B6%AF%E6%AD%8C%E8%80%81%E8%A1%97"
    },
    {
        "name": "鶯歌陶瓷觀光工廠",
        "type": "spot",
        "city": "新北",
        "district": "鶯歌區",
        "description": "可參觀陶瓷製作過程，並體驗DIY手作陶瓷",
        "tags": ["工廠", "體驗", "文化", "手作", "親子"],
        "hours": "依場館或店家為準",
        "cost": "依消費或免費",
        "geo": {"lat": null, "lng": null},
        "gmaps": "https://maps.app.goo.gl/?q=%E9%B6%AF%E6%AD%8C%E9%99%B6%E7%93%B7%E8%A7%80%E5%85%89%E5%B7%A5%E5%BB%A0"
    },
    {
        "name": "三重先嗇宮",
        "type": "spot",
        "city": "新北",
        "district": "三重區",
        "description": "三重著名廟宇，信眾眾多，建築精美，為市定古蹟",
        "tags": ["廟宇", "宗教", "文化", "建築", "古蹟"],
        "hours": "依場館或店家為準",
        "cost": "依消費或免費",
        "geo": {"lat": null, "lng": null},
        "gmaps": "https://maps.app.goo.gl/?q=%E5%85%88%E5%97%87%E5%AE%AE"
    },
    {
        "name": "三重夜市",
        "type": "spot",
        "city": "新北",
        "district": "三重區",
        "description": "新北著名夜市，美食種類豐富，深受當地人喜愛",
        "tags": ["夜市", "美食", "購物", "文化"],
        "hours": "依場館或店家為準",
        "cost": "依消費或免費",
        "geo": {"lat": null, "lng": null},
        "gmaps": "https://maps.app.goo.gl/?q=%E4%B8%89%E9%87%8D%E5%A4%9C%E5%B8%82"
    },
    {
        "name": "三重中央公園",
        "type": "walk",
        "city": "新北",
        "district": "三重區",
        "description": "市區中的綠地，適合休閒與運動",
        "tags": ["公園", "休閒", "運動", "戶外", "散步"],
        "hours": "依場館或店家為準",
        "cost": "依消費或免費",
        "geo": {"lat": null, "lng": null},
        "gmaps": "https://maps.app.goo.gl/?q=%E4%B8%AD%E5%A4%AE%E5%85%AC%E5%9C%92"
    },
    {
        "name": "新店碧潭",
        "type": "walk",
        "city": "新北",
        "district": "新店區",
        "description": "風景秀麗的湖泊，適合划船、踩天鵝船與賞景，有水岸街景第一排",
        "tags": ["湖泊", "戶外", "攝影", "休閒", "划船"],
        "hours": "依場館或店家為準",
        "cost": "依消費或免費",
        "geo": {"lat": null, "lng": null},
        "gmaps": "https://maps.app.goo.gl/?q=%E7%A2%A7%E6%BD%AD"
    },
    {
        "name": "新店安坑輕軌",
        "type": "spot",
        "city": "新北",
        "district": "新店區",
        "description": "連接新店與安坑的輕軌交通，沿線風景優美，可作為旅遊路線",
        "tags": ["交通", "輕軌", "攝影", "旅遊"],
        "hours": "依場館或店家為準",
        "cost": "依消費或免費",
        "geo": {"lat": null, "lng": null},
        "gmaps": "https://maps.app.goo.gl/?q=%E8%BC%95%E9%8C%A8"
    },
    {
        "name": "新店廣興宮",
        "type": "spot",
        "city": "新北",
        "district": "新店區",
        "description": "新店著名廟宇，信眾眾多，建築精美",
        "tags": ["廟宇", "宗教", "文化", "建築"],
        "hours": "依場館或店家為準",
        "cost": "依消費或免費",
        "geo": {"lat": null, "lng": null},
        "gmaps": "https://maps.app.goo.gl/?q=%E5%BB%A3%E8%88%88%E5%AE%AE"
    },
    {
        "name": "深坑老街",
        "type": "spot",
        "city": "新北",
        "district": "深坑區",
        "description": "保留傳統建築與小吃文化的老街，以豆腐美食聞名",
        "tags": ["美食", "文化", "購物", "散步", "老街", "豆腐"],
        "hours": "依場館或店家為準",
        "cost": "依消費或免費",
        "geo": {"lat": null, "lng": null},
        "gmaps": "https://maps.app.goo.gl/?q=%E6%B7%B1%E5%9D%91%E8%80%81%E8%A1%97"
    },
    {
        "name": "深坑豆腐街",
        "type": "spot",
        "city": "新北",
        "district": "深坑區",
        "description": "以傳統豆腐美食聞名的街道，吸引眾多遊客",
        "tags": ["美食", "文化", "購物", "散步", "小吃"],
        "hours": "依場館或店家為準",
        "cost": "依消費或免費",
        "geo": {"lat": null, "lng": null},
        "gmaps": "https://maps.app.goo.gl/?q=%E8%B1%86%E8%85%90%E8%A1%97"
    },
    {
        "name": "深坑平溪天燈",
        "type": "spot",
        "city": "新北",
        "district": "深坑區",
        "description": "深坑區內雖無平溪放天燈地點，但可指引附近平溪區體驗放天燈的傳統活動",
        "tags": ["天燈", "文化", "體驗", "親子"],
        "hours": "依場館或店家為準",
        "cost": "依消費或免費",
        "geo": {"lat": null, "lng": null},
        "gmaps": "https://maps.app.goo.gl/?q=%E5%B9%B3%E6%BA%AA%E5%A4%A9%E7%87%88"
    },
    {
        "name": "石碇白雲山",
        "type": "walk",
        "city": "新北",
        "district": "石碇區",
        "description": "適合健行與賞景的山區，風景優美，有許多登山步道",
        "tags": ["健行", "自然", "攝影", "戶外", "登山"],
        "hours": "依場館或店家為準",
        "cost": "依消費或免費",
        "geo": {"lat": null, "lng": null},
        "gmaps": "https://maps.app.goo.gl/?q=%E7%99%BD%E9%9B%B2%E5%B1%B1"
    },
    {
        "name": "石碇老街",
        "type": "spot",
        "city": "新北",
        "district": "石碇區",
        "description": "保留傳統建築與小吃文化的老街，以獨特的吊腳樓建築聞名",
        "tags": ["美食", "文化", "購物", "散步", "老街", "建築"],
        "hours": "依場館或店家為準",
        "cost": "依消費或免費",
        "geo": {"lat": null, "lng": null},
        "gmaps": "https://maps.app.goo.gl/?q=%E7%9F%B3%E7%A2%87%E8%80%81%E8%A1%97"
    },
    {
        "name": "石碇茶園",
        "type": "walk",
        "city": "新北",
        "district": "石碇區",
        "description": "可參觀茶葉種植與製作過程，並品嚐當地茶葉，適合散步品茗",
        "tags": ["茶園", "體驗", "文化", "美食", "自然"],
        "hours": "依場館或店家為準",
        "cost": "依消費或免費",
        "geo": {"lat": null, "lng": null},
        "gmaps": "https://maps.app.goo.gl/?q=%E8%8C%B6%E5%9C%92"
    },
    {
        "name": "坪林茶業博物館",
        "type": "spot",
        "city": "新北",
        "district": "坪林區",
        "description": "展示坪林茶葉歷史與文化的博物館",
        "tags": ["博物館", "歷史", "文化", "展覽", "茶葉"],
        "hours": "依場館或店家為準",
        "cost": "依消費或免費",
        "geo": {"lat": null, "lng": null},
        "gmaps": "https://maps.app.goo.gl/?q=%E5%9D%AA%E6%9E%97%E8%8C%B6%E6%A5%AD%E5%8D%9A%E7%89%A9%E9%A4%A8"
    },
    {
        "name": "坪林老街",
        "type": "spot",
        "city": "新北",
        "district": "坪林區",
        "description": "保留傳統建築與小吃文化的老街，以茶葉相關商品為主",
        "tags": ["美食", "文化", "購物", "散步", "老街", "茶葉"],
        "hours": "依場館或店家為準",
        "cost": "依消費或免費",
        "geo": {"lat": null, "lng": null},
        "gmaps": "https://maps.app.goo.gl/?q=%E5%9D%AA%E6%9E%97%E8%80%81%E8%A1%97"
    },
    {
        "name": "坪林茶園",
        "type": "walk",
        "city": "新北",
        "district": "坪林區",
        "description": "可參觀茶葉種植與製作過程，並品嚐當地茶葉，擁有廣闊茶景",
        "tags": ["茶園", "體驗", "文化", "美食", "自然", "攝影"],
        "hours": "依場館或店家為準",
        "cost": "依消費或免費",
        "geo": {"lat": null, "lng": null},
        "gmaps": "https://maps.app.goo.gl/?q=%E5%9D%AA%E6%9E%97%E8%8C%B6%E5%9C%92"
    },
    {
        "name": "瑞芳金瓜石",
        "type": "spot",
        "city": "新北",
        "district": "瑞芳區",
        "description": "以金礦歷史聞名的小鎮，有黃金博物館與特色美食，風景優美",
        "tags": ["歷史", "文化", "美食", "博物館", "攝影"],
        "hours": "依場館或店家為準",
        "cost": "依消費或免費",
        "geo": {"lat": null, "lng": null},
        "gmaps": "https://maps.app.goo.gl/?q=%E9%87%91%E7%93%9C%E7%9F%B3"
    },
    {
        "name": "瑞芳老街",
        "type": "spot",
        "city": "新北",
        "district": "瑞芳區",
        "description": "保留傳統建築與小吃文化的老街，適合漫步與品嚐地方美食",
        "tags": ["美食", "文化", "購物", "散步", "老街"],
        "hours": "依場館或店家為準",
        "cost": "依消費或免費",
        "geo": {"lat": null, "lng": null},
        "gmaps": "https://maps.app.goo.gl/?q=%E7%91%9E%E8%8A%B3%E8%80%81%E8%A1%97"
    },
    {
        "name": "瑞芳黃金博物館",
        "type": "spot",
        "city": "新北",
        "district": "瑞芳區",
        "description": "展示金瓜石金礦歷史與文化的博物館，可觸摸大金磚",
        "tags": ["博物館", "歷史", "文化", "展覽", "體驗"],
        "hours": "依場館或店家為準",
        "cost": "依消費或免費",
        "geo": {"lat": null, "lng": null},
        "gmaps": "https://maps.app.goo.gl/?q=%E9%BB%83%E9%87%91%E5%8D%9A%E7%89%A9%E9%A4%A8"
    },
    {
        "name": "雙溪老街",
        "type": "spot",
        "city": "新北",
        "district": "雙溪區",
        "description": "保留傳統建築與小吃文化的老街，適合漫步與品嚐地方美食",
        "tags": ["美食", "文化", "購物", "散步", "老街"],
        "hours": "依場館或店家為準",
        "cost": "依消費或免費",
        "geo": {"lat": null, "lng": null},
        "gmaps": "https://maps.app.goo.gl/?q=%E9%9B%99%E6%BA%AA%E8%80%81%E8%A1%97"
    },
    {
        "name": "雙溪溫泉",
        "type": "spot",
        "city": "新北",
        "district": "雙溪區",
        "description": "泉質優良，適合泡湯放鬆",
        "tags": ["溫泉", "休閒", "放鬆", "健康"],
        "hours": "依場館或店家為準",
        "cost": "依消費或免費",
        "geo": {"lat": null, "lng": null},
        "gmaps": "https://maps.app.goo.gl/?q=%E9%9B%99%E6%BA%AA%E6%BA%AB%E6%B3%89"
    },
    {
        "name": "雙溪自然公園",
        "type": "walk",
        "city": "新北",
        "district": "雙溪區",
        "description": "自然景觀優美，適合戶外活動與健行",
        "tags": ["公園", "自然", "健行", "戶外", "休閒"],
        "hours": "依場館或店家為準",
        "cost": "依消費或免費",
        "geo": {"lat": null, "lng": null},
        "gmaps": "https://maps.app.goo.gl/?q=%E9%9B%99%E6%BA%AA%E8%87%AA%E7%84%B6%E5%85%AC%E5%9C%92"
    },
    {
        "name": "貢寮老街",
        "type": "spot",
        "city": "新北",
        "district": "貢寮區",
        "description": "保留傳統建築與小吃文化的老街，適合漫步與品嚐地方美食",
        "tags": ["美食", "文化", "購物", "散步", "老街"],
        "hours": "依場館或店家為準",
        "cost": "依消費或免費",
        "geo": {"lat": null, "lng": null},
        "gmaps": "https://maps.app.goo.gl/?q=%E8%B2%A2%E5%AF%AE%E8%80%81%E8%A1%97"
    },
    {
        "name": "貢寮福隆海水浴場",
        "type": "walk",
        "city": "新北",
        "district": "貢寮區",
        "description": "夏季熱門的海水浴場，以國際沙雕藝術季聞名，適合全家大小遊玩",
        "tags": ["海水浴", "戶外", "休閒", "親子", "沙灘"],
        "hours": "依場館或店家為準",
        "cost": "依消費或免費",
        "geo": {"lat": null, "lng": null},
        "gmaps": "https://maps.app.goo.gl/?q=%E7%A6%8F%E9%9A%86%E6%B5%B7%E6%B0%B4%E6%B5%B4%E5%A0%B4"
    },
    {
        "name": "貢寮龍洞灣",
        "type": "walk",
        "city": "新北",
        "district": "貢寮區",
        "description": "海灣景觀優美，適合浮潛、潛水等水上活動與賞景",
        "tags": ["海景", "戶外", "攝影", "休閒", "潛水"],
        "hours": "依場館或店家為準",
        "cost": "依消費或免費",
        "geo": {"lat": null, "lng": null},
        "gmaps": "https://maps.app.goo.gl/?q=%E9%BE%8D%E6%B4%9E%E7%81%A3"
    },
    {
        "name": "烏來瀑布",
        "type": "walk",
        "city": "新北",
        "district": "烏來區",
        "description": "風景秀麗的瀑布，可搭乘台車賞景，適合健行與賞景",
        "tags": ["瀑布", "健行", "自然", "攝影", "台車"],
        "hours": "依場館或店家為準",
        "cost": "依消費或免費",
        "geo": {"lat": null, "lng": null},
        "gmaps": "https://maps.app.goo.gl/?q=%E7%83%8F%E4%BE%86%E7%80%91%E5%B8%83"
    },
    {
        "name": "烏來溫泉",
        "type": "spot",
        "city": "新北",
        "district": "烏來區",
        "description": "泉質優良，適合泡湯放鬆，屬於弱鹼性碳酸泉",
        "tags": ["溫泉", "休閒", "放鬆", "健康"],
        "hours": "依場館或店家為準",
        "cost": "依消費或免費",
        "geo": {"lat": null, "lng": null},
        "gmaps": "https://maps.app.goo.gl/?q=%E7%83%8F%E4%BE%86%E6%BA%AB%E6%B3%89"
    },
    {
        "name": "烏來老街",
        "type": "spot",
        "city": "新北",
        "district": "烏來區",
        "description": "保留傳統建築與小吃文化的老街，以原住民美食與山產聞名",
        "tags": ["美食", "文化", "購物", "散步", "原住民"],
        "hours": "依場館或店家為準",
        "cost": "依消費或免費",
        "geo": {"lat": null, "lng": null},
        "gmaps": "https://maps.app.goo.gl/?q=%E7%83%8F%E4%BE%86%E8%80%81%E8%A1%97"
    },
    {
        "name": "九份老街",
        "type": "spot",
        "city": "新北",
        "district": "瑞芳區",
        "description": "山城老街，充滿日式懷舊氛圍，以芋圓與茶樓聞名，夜景優美",
        "tags": ["美食", "文化", "購物", "散步", "老街", "夜景", "茶樓"],
        "hours": "依場館或店家為準",
        "cost": "依消費或免費",
        "geo": {"lat": null, "lng": null},
        "gmaps": "https://maps.app.goo.gl/?q=%E9%87%91%E5%B1%B1%E8%80%81%E8%A1%976"
    },
    {
        "name": "猴硐貓村",
        "type": "spot",
        "city": "新北",
        "district": "瑞芳區",
        "description": "以眾多貓咪聞名的特色村落，適合貓奴與攝影愛好者，有火車經過",
        "tags": ["動物", "攝影", "休閒", "特色", "親子"],
        "hours": "全天開放",
        "cost": "免費",
        "geo": {"lat": null, "lng": null},
        "gmaps": "https://maps.app.goo.gl/?q=%E9%87%91%E5%B1%B1%E8%80%81%E8%A1%977"
    },
    {
        "name": "十分瀑布公園",
        "type": "walk",
        "city": "新北",
        "district": "平溪區",
        "description": "壯觀的簾幕式瀑布，有「台灣尼加拉瀑布」美稱，步道規劃完善",
        "tags": ["瀑布", "自然", "健行", "攝影", "戶外"],
        "hours": "依場館或店家為準",
        "cost": "依場館或店家為準",
        "geo": {"lat": null, "lng": null},
        "gmaps": "https://maps.app.goo.gl/?q=%E9%87%91%E5%B1%B1%E8%80%81%E8%A1%978"
    },
    {
        "name": "平溪老街天燈",
        "type": "spot",
        "city": "新北",
        "district": "平溪區",
        "description": "鐵道沿線老街，以放天燈活動聞名國際，充滿懷舊風情",
        "tags": ["天燈", "文化", "體驗", "攝影", "老街"],
        "hours": "依場館或店家為準",
        "cost": "依消費或免費",
        "geo": {"lat": null, "lng": null},
        "gmaps": "https://maps.app.goo.gl/?q=%E9%87%91%E5%B1%B1%E8%80%81%E8%A1%979"
    },
    {
        "name": "新月橋",
        "type": "walk",
        "city": "新北",
        "district": "板橋區/新莊區",
        "description": "新北著名景觀橋，連接板橋與新莊，適合散步、騎腳踏車，夜景迷人",
        "tags": ["橋樑", "夜景", "攝影", "休閒", "腳踏車"],
        "hours": "全天開放",
        "cost": "免費",
        "geo": {"lat": null, "lng": null},
        "gmaps": "https://maps.app.goo.gl/?q=%E9%87%91%E5%B1%B1%E6%BA%AB%E6%B3%890"
    },
    {
        "name": "淡水一滴水紀念館",
        "type": "spot",
        "city": "新北",
        "district": "淡水區",
        "description": "由日本移築而來的古老木造民宅，展現台日文化交流",
        "tags": ["文化", "歷史", "建築", "展覽"],
        "hours": "依場館或店家為準",
        "cost": "依消費或免費",
        "geo": {"lat": null, "lng": null},
        "gmaps": "https://maps.app.goo.gl/?q=%E9%87%91%E5%B1%B1%E6%BA%AB%E6%B3%891"
    },
    {
        "name": "老梅石槽",
        "type": "walk",
        "city": "新北",
        "district": "石門區",
        "description": "特殊的綠色石槽地景，通常在春季限定出現，適合攝影",
        "tags": ["海景", "地質", "自然", "攝影", "季節限定"],
        "hours": "全天開放 (注意潮汐)",
        "cost": "免費",
        "geo": {"lat": null, "lng": null},
        "gmaps": "https://maps.app.goo.gl/?q=%E9%87%91%E5%B1%B1%E6%BA%AB%E6%B3%892"
    },
    {
        "name": "淡水多田榮吉故居",
        "type": "spot",
        "city": "新北",
        "district": "淡水區",
        "description": "日治時期街長故居，保有傳統日式建築風格，可俯瞰淡水河景",
        "tags": ["古蹟", "歷史", "建築", "文化", "日式"],
        "hours": "依場館或店家為準",
        "cost": "依消費或免費",
        "geo": {"lat": null, "lng": null},
        "gmaps": "https://maps.app.goo.gl/?q=%E9%87%91%E5%B1%B1%E6%BA%AB%E6%B3%893"
    },
    {
        "name": "八里水灣BALI景觀餐廳",
        "type": "cafe",
        "city": "新北",
        "district": "八里區",
        "description": "八里左岸著名的南洋風主題景觀餐廳，適合賞河景與用餐",
        "tags": ["美食", "景觀", "休閒", "約會", "南洋風"],
        "hours": "依店家為準",
        "cost": "中高消費",
        "geo": {"lat": null, "lng": null},
        "gmaps": "https://maps.app.goo.gl/?q=%E9%87%91%E5%B1%B1%E6%BA%AB%E6%B3%894"
    },
    {
        "name": "深澳象鼻岩 (已崩塌)",
        "type": "walk",
        "city": "新北",
        "district": "瑞芳區",
        "description": "曾是著名海蝕地景，雖已崩塌，但周邊海域仍是釣魚和觀景熱點",
        "tags": ["海景", "自然", "攝影", "地質", "戶外"],
        "hours": "全天開放",
        "cost": "免費",
        "geo": {"lat": null, "lng": null},
        "gmaps": "https://maps.app.goo.gl/?q=%E9%87%91%E5%B1%B1%E6%BA%AB%E6%B3%895"
    },
    {
        "name": "板橋Merci Vielle",
        "type": "cafe",
        "city": "新北",
        "district": "板橋區",
        "description": "板橋著名的老宅咖啡廳，裝潢復古有特色，提供輕食與咖啡",
        "tags": ["咖啡", "輕食", "特色", "休閒", "下午茶"],
        "hours": "依店家為準",
        "cost": "中等消費",
        "geo": {"lat": null, "lng": null},
        "gmaps": "https://maps.app.goo.gl/?q=%E9%87%91%E5%B1%B1%E6%BA%AB%E6%B3%896"
    },
    {
        "name": "新店銀河洞越嶺步道",
        "type": "walk",
        "city": "新北",
        "district": "新店區",
        "description": "以內嵌於山洞中的廟宇和懸空瀑布聞名，是條適合健行與攝影的步道",
        "tags": ["健行", "自然", "瀑布", "寺廟", "攝影"],
        "hours": "全天開放",
        "cost": "免費",
        "geo": {"lat": null, "lng": null},
        "gmaps": "https://maps.app.goo.gl/?q=%E9%87%91%E5%B1%B1%E6%BA%AB%E6%B3%897"
    },
    {
        "name": "淡水硓1咖啡",
        "type": "cafe",
        "city": "新北",
        "district": "淡水區",
        "description": "位於淡水海邊的特色咖啡廳，以硓1石建造，適合看海放鬆",
        "tags": ["咖啡", "海景", "休閒", "特色", "下午茶"],
        "hours": "依店家為準",
        "cost": "中等消費",
        "geo": {"lat": null, "lng": null},
        "gmaps": "https://maps.app.goo.gl/?q=%E9%87%91%E5%B1%B1%E6%BA%AB%E6%B3%898"
    },
    {
        "name": "三峽甘樂文創",
        "type": "cafe",
        "city": "新北",
        "district": "三峽區",
        "description": "由老工廠改建的文創空間，結合餐廳、咖啡與在地文化展覽",
        "tags": ["文創", "咖啡", "文化", "輕食", "展覽"],
        "hours": "依店家為準",
        "cost": "中等消費",
        "geo": {"lat": null, "lng": null},
        "gmaps": "https://maps.app.goo.gl/?q=%E9%87%91%E5%B1%B1%E6%BA%AB%E6%B3%899"
    }
]