[
  {
    "name": "台北101觀景台",
    "type": "spot",
    "city": "台北",
    "district": "信義區",
    "description": "台北地標與高空景觀平台",
    "tags": [
      "地標",
      "觀景",
      "購物",
      "拍照"
    ],
    "hours": "依場館或店家為準",
    "cost": "依消費或免費",
    "geo": {
      "lat": null,
      "lng": null
    },
    "gmaps": "https://maps.app.goo.gl/?q=%E5%8F%B0%E5%8C%97101%E8%A7%80%E6%99%AF%E5%8F%B0",
    "image_url": "https://www.taiwan.net.tw/att/1/big_scenic_spots/pic_7927_32.jpg"
  },
  {
    "name": "國父紀念館",
    "type": "spot",
    "city": "台北",
    "district": "信義區",
    "description": "大型展演與展覽場館，周邊綠地適合散步",
    "tags": [
      "文化",
      "展覽",
      "散步"
    ],
    "hours": "依場館或店家為準",
    "cost": "依消費或免費",
    "geo": {
      "lat": null,
      "lng": null
    },
    "gmaps": "https://maps.app.goo.gl/?q=%E5%9C%8B%E7%88%B6%E7%B4%80%E5%BF%B5%E9%A4%A8",
    "image_url": "https://senior.104.com.tw/img/zip/3ba4d0c15ca444d0bdf122c7396a86ae11.jpeg"
  },
  {
    "name": "象山步道",
    "type": "walk",
    "city": "台北",
    "district": "信義區",
    "description": "熱門親山步道，夜景觀賞點",
    "tags": [
      "登山",
      "夜景",
      "戶外"
    ],
    "hours": "依場館或店家為準",
    "cost": "依消費或免費",
    "geo": {
      "lat": null,
      "lng": null
    },
    "gmaps": "https://maps.app.goo.gl/?q=%E8%B1%A1%E5%B1%B1%E6%AD%A5%E9%81%93",
    "image_url": "https://www.travel.taipei/image/222132/?r=1637654386987"
  },
  {
    "name": "四四南村",
    "type": "cafe",
    "city": "台北",
    "district": "信義區",
    "description": "眷村改建文創聚落，好丘與市集",
    "tags": [
      "文創",
      "咖啡",
      "拍照"
    ],
    "hours": "依場館或店家為準",
    "cost": "依消費或免費",
    "geo": {
      "lat": null,
      "lng": null
    },
    "gmaps": "https://maps.app.goo.gl/?q=%E5%9B%9B%E5%9B%9B%E5%8D%97%E6%9D%91",
    "image_url": "https://www.fun-taiwan.com/Images/PlayNotes/121153-S20120829032355.jpg"
  },
  {
    "name": "松山文創園區",
    "type": "spot",
    "city": "台北",
    "district": "信義區",
    "description": "老菸廠轉型文創基地，展覽與市集",
    "tags": [
      "文創",
      "展覽",
      "市集"
    ],
    "hours": "依場館或店家為準",
    "cost": "依消費或免費",
    "geo": {
      "lat": null,
      "lng": null
    },
    "gmaps": "https://maps.app.goo.gl/?q=%E6%9D%BE%E5%B1%B1%E6%96%87%E5%89%B5%E5%9C%92%E5%8D%80",
    "image_url": "https://www.taiwanviptravel.com/articles/images/songshan-cultural-park-img3.jpg"
  },
  {
    "name": "台北世貿中心",
    "type": "spot",
    "city": "台北",
    "district": "信義區",
    "description": "國際展覽與會展場域",
    "tags": [
      "展覽",
      "商務"
    ],
    "hours": "依場館或店家為準",
    "cost": "依消費或免費",
    "geo": {
      "lat": null,
      "lng": null
    },
    "gmaps": "https://maps.app.goo.gl/?q=%E5%8F%B0%E5%8C%97%E4%B8%96%E8%B2%BF%E4%B8%AD%E5%BF%83",
    "image_url": "https://s3cdn.yourator.co/banners/banners/000/002/105/home/a46a299319b407569091a23b72ab0e2c6ab38824.png"
  },
  {
    "name": "台北市政府",
    "type": "spot",
    "city": "台北",
    "district": "信義區",
    "description": "城市地標與周邊市民廣場",
    "tags": [
      "地標",
      "公共空間"
    ],
    "hours": "依場館或店家為準",
    "cost": "依消費或免費",
    "geo": {
      "lat": null,
      "lng": null
    },
    "gmaps": "https://maps.app.goo.gl/?q=%E5%8F%B0%E5%8C%97%E5%B8%82%E6%94%BF%E5%BA%9C",
    "image_url": "https://www.travel.taipei/content/images/attractions/191906/480x360_attractions-image-y-1yhe8xz0e52lrkjvjqkw.jpg"
  },
  {
    "name": "信義香堤大道廣場",
    "type": "walk",
    "city": "台北",
    "district": "信義區",
    "description": "百貨間中庭步道裝置藝術",
    "tags": [
      "散步",
      "拍照",
      "購物"
    ],
    "hours": "依場館或店家為準",
    "cost": "依消費或免費",
    "geo": {
      "lat": null,
      "lng": null
    },
    "gmaps": "https://maps.app.goo.gl/?q=%E4%BF%A1%E7%BE%A9%E9%A6%99%E5%A0%A4%E5%A4%A7%E9%81%93%E5%BB%A3%E5%A0%B4",
    "image_url": "https://cdn.walkerland.com.tw/images/upload/poi/p95582/m70171/0585517dd7ffc576a9bb869333fb822752424241.jpg"
  },
  {
    "name": "ATT 4 FUN",
    "type": "spot",
    "city": "台北",
    "district": "信義區",
    "description": "複合娛樂與餐飲購物商場",
    "tags": [
      "購物",
      "美食",
      "娛樂"
    ],
    "hours": "依場館或店家為準",
    "cost": "依消費或免費",
    "geo": {
      "lat": null,
      "lng": null
    },
    "gmaps": "https://maps.app.goo.gl/?q=ATT%204%20FUN",
    "image_url": "https://ciaotw-com.sfo3.digitaloceanspaces.com/wp-content/uploads/2023/08/cover-att4fun.jpg"
  },
  {
    "name": "台北國際會議中心",
    "type": "spot",
    "city": "台北",
    "district": "信義區",
    "description": "大型會議與活動場地",
    "tags": [
      "會展",
      "商務"
    ],
    "hours": "依場館或店家為準",
    "cost": "依消費或免費",
    "geo": {
      "lat": null,
      "lng": null
    },
    "gmaps": "https://maps.app.goo.gl/?q=%E5%8F%B0%E5%8C%97%E5%9C%8B%E9%9A%9B%E6%9C%83%E8%AD%B0%E4%B8%AD%E5%BF%83",
    "image_url": "https://i.epochtimes.com/assets/uploads/2009/07/907050303021758-600x400.jpg"
  },
  {
    "name": "大安森林公園",
    "type": "walk",
    "city": "台北",
    "district": "大安區",
    "description": "市區最大公園，生態池與環狀步道",
    "tags": [
      "公園",
      "運動",
      "野餐"
    ],
    "hours": "依場館或店家為準",
    "cost": "依消費或免費",
    "geo": {
      "lat": null,
      "lng": null
    },
    "gmaps": "https://maps.app.goo.gl/?q=%E5%A4%A7%E5%AE%89%E6%A3%AE%E6%9E%97%E5%85%AC%E5%9C%92",
    "image_url": "https://nienie.tw/wp-content/uploads/2023/05/%E5%8F%B0%E5%8C%97%E5%B8%82%E7%89%B9%E8%89%B2%E5%85%AC%E5%9C%92%EF%BD%9C%E5%A4%A7%E5%AE%89%E6%A3%AE%E6%9E%97%E5%85%AC%E5%9C%92%E8%A6%AA%E5%AD%90%E6%99%AF%E9%BB%9E%E9%A6%96%E9%81%B8%E8%B6%85%E5%A5%BD%E7%8E%A9%E6%94%80%E7%88%AC%E9%81%8A%E6%A8%82%E8%A8%AD%E6%96%BD-5416.jpg"
  },
  {
    "name": "師大夜市",
    "type": "cafe",
    "city": "台北",
    "district": "大安區",
    "description": "學生族最愛平價美食商圈",
    "tags": [
      "夜市",
      "小吃",
      "美食"
    ],
    "hours": "依場館或店家為準",
    "cost": "依消費或免費",
    "geo": {
      "lat": null,
      "lng": null
    },
    "gmaps": "https://maps.app.goo.gl/?q=%E5%B8%AB%E5%A4%A7%E5%A4%9C%E5%B8%82",
    "image_url": "https://www.welcometw.com/wp-content/uploads/2022/03/%E5%B8%AB%E5%A4%A7%E5%A4%9C%E5%B8%82-850x611.jpg"
  },
  {
    "name": "臨江街夜市（通化夜市）",
    "type": "cafe",
    "city": "台北",
    "district": "大安區",
    "description": "在地人氣夜市，宵夜好去處",
    "tags": [
      "夜市",
      "小吃",
      "在地"
    ],
    "hours": "依場館或店家為準",
    "cost": "依消費或免費",
    "geo": {
      "lat": null,
      "lng": null
    },
    "gmaps": "https://maps.app.goo.gl/?q=%E8%87%A8%E6%B1%9F%E8%A1%97%E5%A4%9C%E5%B8%82%EF%BC%88%E9%80%9A%E5%8C%96%E5%A4%9C%E5%B8%82%EF%BC%89",
    "image_url": "https://woment.com.tw/wp-content/uploads/2024/02/linjiang-street-night-market-in-taipei-1.jpg"
  },
  {
    "name": "國立臺灣大學校園",
    "type": "walk",
    "city": "台北",
    "district": "大安區",
    "description": "老榕大道與校園人文風景",
    "tags": [
      "校園",
      "散步",
      "拍照"
    ],
    "hours": "依場館或店家為準",
    "cost": "依消費或免費",
    "geo": {
      "lat": null,
      "lng": null
    },
    "gmaps": "https://maps.app.goo.gl/?q=%E5%9C%8B%E7%AB%8B%E8%87%BA%E7%81%A3%E5%A4%A7%E5%AD%B8%E6%A0%A1%E5%9C%92",
    "image_url": "https://storage.googleapis.com/opinion-cms-cwg-tw/article/201804/article-5ae6c4e816920.jpg"
  },
  {
    "name": "公館商圈",
    "type": "cafe",
    "city": "台北",
    "district": "大安區",
    "description": "學生美食、服飾與小店聚集",
    "tags": [
      "美食",
      "逛街",
      "平價"
    ],
    "hours": "依場館或店家為準",
    "cost": "依消費或免費",
    "geo": {
      "lat": null,
      "lng": null
    },
    "gmaps": "https://maps.app.goo.gl/?q=%E5%85%AC%E9%A4%A8%E5%95%86%E5%9C%88",
    "image_url": "https://s.yimg.com/ny/api/res/1.2/Sr.gg0dYHaXWvkQ9QsNb1w--/YXBwaWQ9aGlnaGxhbmRlcjt3PTY0MDtoPTQyNw--/https://media.zenfs.com/zh-tw/chinatimes.com.tw/81461922cbd8dd945661d943a69a0087"
  },
  {
    "name": "建國假日花市",
    "type": "spot",
    "city": "台北",
    "district": "大安區",
    "description": "週末限定大型花市與玉市",
    "tags": [
      "市集",
      "花卉",
      "逛街"
    ],
    "hours": "依場館或店家為準",
    "cost": "依消費或免費",
    "geo": {
      "lat": null,
      "lng": null
    },
    "gmaps": "https://maps.app.goo.gl/?q=%E5%BB%BA%E5%9C%8B%E5%81%87%E6%97%A5%E8%8A%B1%E5%B8%82",
    "image_url": "https://attach.setn.com/newsimages/2018/11/07/1629024-XXL.jpg"
  },
  {
    "name": "青田街老屋聚落",
    "type": "walk",
    "city": "台北",
    "district": "大安區",
    "description": "日式老屋咖啡與人文巷弄",
    "tags": [
      "文青",
      "咖啡",
      "老屋"
    ],
    "hours": "依場館或店家為準",
    "cost": "依消費或免費",
    "geo": {
      "lat": null,
      "lng": null
    },
    "gmaps": "https://maps.app.goo.gl/?q=%E9%9D%92%E7%94%B0%E8%A1%97%E8%80%81%E5%B1%8B%E8%81%9A%E8%90%BD",
    "image_url": "https://decolifetw.com/wp-content/uploads/2023/04/%E9%9D%92%E7%94%B0%E8%A1%97-v2-6806.jpg"
  },
  {
    "name": "忠孝東路東區商圈",
    "type": "spot",
    "city": "台北",
    "district": "大安區",
    "description": "東區延伸商圈，餐飲林立",
    "tags": [
      "美食",
      "購物"
    ],
    "hours": "依場館或店家為準",
    "cost": "依消費或免費",
    "geo": {
      "lat": null,
      "lng": null
    },
    "gmaps": "https://maps.app.goo.gl/?q=%E5%92%8C%E5%B9%B3%E6%9D%B1%E8%B7%AF%E6%9D%B1%E5%8D%80%E5%95%86%E5%9C%88",
    "image_url": "https://p1-news.hfcdn.com/p1-news/MzQxMTA3Nm5ld3M,/d2a6540aa1e67a3a_800x364.jpg/qs/w=600&h=600&r=16888"
  },
  {
    "name": "福州山親山步道",
    "type": "walk",
    "city": "台北",
    "district": "大安區",
    "description": "市區近郊步道，展望大安天際線",
    "tags": [
      "登山",
      "景觀",
      "戶外"
    ],
    "hours": "依場館或店家為準",
    "cost": "依消費或免費",
    "geo": {
      "lat": null,
      "lng": null
    },
    "gmaps": "https://maps.app.goo.gl/?q=%E7%A6%8F%E5%B7%9E%E5%B1%B1%E8%A6%AA%E5%B1%B1%E6%AD%A5%E9%81%93",
    "image_url": "https://obs.line-scdn.net/0h6x5PzDUCaVcIKUHQZcYWADF_ZSY7TXxRZlEmMXl8MWQjHzIGYEx2LSguNWY5SSZSMVNyYyt6Y24iHi5WMhg"
  },
  {
    "name": "中正紀念堂",
    "type": "spot",
    "city": "台北",
    "district": "中正區",
    "description": "經典地標與廣場，儀隊交接",
    "tags": [
      "地標",
      "歷史",
      "展演"
    ],
    "hours": "依場館或店家為準",
    "cost": "依消費或免費",
    "geo": {
      "lat": null,
      "lng": null
    },
    "gmaps": "https://maps.app.goo.gl/?q=%E4%B8%AD%E6%AD%A3%E7%B4%80%E5%BF%B5%E5%A0%82",
    "image_url": "https://source.unsplash.com/featured/?%E5%8F%B0%E5%8C%97%20%E4%B8%AD%E6%AD%A3%E7%B4%80%E5%BF%B5%E5%A0%82"
  },
  {
    "name": "華山1914文化創意產業園區",
    "type": "spot",
    "city": "台北",
    "district": "中正區",
    "description": "酒廠改建展演場域，市集與展覽",
    "tags": [
      "文創",
      "展覽",
      "市集"
    ],
    "hours": "依場館或店家為準",
    "cost": "依消費或免費",
    "geo": {
      "lat": null,
      "lng": null
    },
    "gmaps": "https://maps.app.goo.gl/?q=%E8%8F%AF%E5%B1%B11914%E6%96%87%E5%8C%96%E5%89%B5%E6%84%8F%E7%94%A2%E6%A5%AD%E5%9C%92%E5%8D%80",
    "image_url": "https://source.unsplash.com/featured/?%E5%8F%B0%E5%8C%97%20%E8%8F%AF%E5%B1%B11914%E6%96%87%E5%8C%96%E5%89%B5%E6%84%8F%E7%94%A2%E6%A5%AD%E5%9C%92%E5%8D%80"
  },
  {
    "name": "國立臺灣博物館",
    "type": "spot",
    "city": "台北",
    "district": "中正區",
    "description": "臺灣最早的博物館之一",
    "tags": [
      "博物館",
      "歷史",
      "自然"
    ],
    "hours": "依場館或店家為準",
    "cost": "依消費或免費",
    "geo": {
      "lat": null,
      "lng": null
    },
    "gmaps": "https://maps.app.goo.gl/?q=%E5%9C%8B%E7%AB%8B%E8%87%BA%E7%81%A3%E5%8D%9A%E7%89%A9%E9%A4%A8",
    "image_url": "https://source.unsplash.com/featured/?%E5%8F%B0%E5%8C%97%20%E5%9C%8B%E7%AB%8B%E8%87%BA%E7%81%A3%E5%8D%9A%E7%89%A9%E9%A4%A8"
  },
  {
    "name": "二二八和平紀念公園",
    "type": "walk",
    "city": "台北",
    "district": "中正區",
    "description": "市中心綠地與紀念空間",
    "tags": [
      "公園",
      "歷史",
      "散步"
    ],
    "hours": "依場館或店家為準",
    "cost": "依消費或免費",
    "geo": {
      "lat": null,
      "lng": null
    },
    "gmaps": "https://maps.app.goo.gl/?q=%E4%BA%8C%E4%BA%8C%E5%85%AB%E5%92%8C%E5%B9%B3%E7%B4%80%E5%BF%B5%E5%85%AC%E5%9C%92",
    "image_url": "https://source.unsplash.com/featured/?%E5%8F%B0%E5%8C%97%20%E4%BA%8C%E4%BA%8C%E5%85%AB%E5%92%8C%E5%B9%B3%E7%B4%80%E5%BF%B5%E5%85%AC%E5%9C%92"
  },
  {
    "name": "國家戲劇院",
    "type": "spot",
    "city": "台北",
    "district": "中正區",
    "description": "指標性表演藝術場館",
    "tags": [
      "表演",
      "藝術",
      "建築"
    ],
    "hours": "依場館或店家為準",
    "cost": "依消費或免費",
    "geo": {
      "lat": null,
      "lng": null
    },
    "gmaps": "https://maps.app.goo.gl/?q=%E5%9C%8B%E5%AE%B6%E6%88%B2%E5%8A%87%E9%99%A2",
    "image_url": "https://source.unsplash.com/featured/?%E5%8F%B0%E5%8C%97%20%E5%9C%8B%E5%AE%B6%E6%88%B2%E5%8A%87%E9%99%A2"
  },
  {
    "name": "國家音樂廳",
    "type": "spot",
    "city": "台北",
    "district": "中正區",
    "description": "古典音樂與演出核心場域",
    "tags": [
      "音樂",
      "藝術",
      "展演"
    ],
    "hours": "依場館或店家為準",
    "cost": "依消費或免費",
    "geo": {
      "lat": null,
      "lng": null
    },
    "gmaps": "https://maps.app.goo.gl/?q=%E5%9C%8B%E5%AE%B6%E9%9F%B3%E6%A8%82%E5%BB%B3",
    "image_url": "https://source.unsplash.com/featured/?%E5%8F%B0%E5%8C%97%20%E5%9C%8B%E5%AE%B6%E9%9F%B3%E6%A8%82%E5%BB%B3"
  },
  {
    "name": "總統府",
    "type": "spot",
    "city": "台北",
    "district": "中正區",
    "description": "歷史建築外觀與特定日開放參觀",
    "tags": [
      "歷史",
      "建築",
      "地標"
    ],
    "hours": "依場館或店家為準",
    "cost": "依消費或免費",
    "geo": {
      "lat": null,
      "lng": null
    },
    "gmaps": "https://maps.app.goo.gl/?q=%E7%B8%BD%E7%B5%B1%E5%BA%9C",
    "image_url": "https://source.unsplash.com/featured/?%E5%8F%B0%E5%8C%97%20%E7%B8%BD%E7%B5%B1%E5%BA%9C"
  },
  {
    "name": "南門市場",
    "type": "cafe",
    "city": "台北",
    "district": "中正區",
    "description": "傳統市場與老字號南北貨",
    "tags": [
      "市場",
      "美食",
      "在地"
    ],
    "hours": "依場館或店家為準",
    "cost": "依消費或免費",
    "geo": {
      "lat": null,
      "lng": null
    },
    "gmaps": "https://maps.app.goo.gl/?q=%E5%8D%97%E9%96%80%E5%B8%82%E5%A0%B4",
    "image_url": "https://source.unsplash.com/featured/?%E5%8F%B0%E5%8C%97%20%E5%8D%97%E9%96%80%E5%B8%82%E5%A0%B4"
  },
  {
    "name": "臺北植物園",
    "type": "walk",
    "city": "台北",
    "district": "中正區",
    "description": "荷花池與溫室植物，都市中的綠洲",
    "tags": [
      "自然",
      "散步",
      "拍照"
    ],
    "hours": "依場館或店家為準",
    "cost": "依消費或免費",
    "geo": {
      "lat": null,
      "lng": null
    },
    "gmaps": "https://maps.app.goo.gl/?q=%E8%87%BA%E5%8C%97%E6%A4%8D%E7%89%A9%E5%9C%92",
    "image_url": "https://source.unsplash.com/featured/?%E5%8F%B0%E5%8C%97%20%E8%87%BA%E5%8C%97%E6%A4%8D%E7%89%A9%E5%9C%92"
  },
  {
    "name": "永康街商圈",
    "type": "cafe",
    "city": "台北",
    "district": "中正區",
    "description": "鼎泰豐等名店雲集的美食街",
    "tags": [
      "美食",
      "甜點",
      "逛街"
    ],
    "hours": "依場館或店家為準",
    "cost": "依消費或免費",
    "geo": {
      "lat": null,
      "lng": null
    },
    "gmaps": "https://maps.app.goo.gl/?q=%E6%B0%B8%E5%BA%B7%E8%A1%97%E5%95%86%E5%9C%88",
    "image_url": "https://static.wealth.com.tw/92d60f2ec91fa8c2cd4dab4ed7208196e0d296f1.jpg"
  },
  {
    "name": "迪化街",
    "type": "walk",
    "city": "台北",
    "district": "大同區",
    "description": "百年南北貨老街與文創小店",
    "tags": [
      "老街",
      "歷史",
      "文創"
    ],
    "hours": "依場館或店家為準",
    "cost": "依消費或免費",
    "geo": {
      "lat": null,
      "lng": null
    },
    "gmaps": "https://maps.app.goo.gl/?q=%E8%BF%AA%E5%8C%96%E8%A1%97",
    "image_url": "https://taiwantour.net/wp-content/uploads/2021/10/1634115625-17214818bcd90dfc22143fea3318d7e1.jpg"
  },
  {
    "name": "寧夏夜市",
    "type": "cafe",
    "city": "台北",
    "district": "大同區",
    "description": "在地人推薦的傳統夜市",
    "tags": [
      "夜市",
      "小吃",
      "在地"
    ],
    "hours": "依場館或店家為準",
    "cost": "依消費或免費",
    "geo": {
      "lat": null,
      "lng": null
    },
    "gmaps": "https://maps.app.goo.gl/?q=%E5%AF%A7%E5%A4%8F%E5%A4%9C%E5%B8%82",
    "image_url": "https://esg-asset.tvbs.com.tw/articles/img/DzDMT9c0kdEMBjGLQZ8Pc4lzhnqNvdCftxKQguDZ.jpg"
  },
  {
    "name": "大稻埕碼頭",
    "type": "walk",
    "city": "台北",
    "district": "大同區",
    "description": "河岸夕陽與市集活動",
    "tags": [
      "河岸",
      "散步",
      "拍照"
    ],
    "hours": "依場館或店家為準",
    "cost": "依消費或免費",
    "geo": {
      "lat": null,
      "lng": null
    },
    "gmaps": "https://maps.app.goo.gl/?q=%E5%A4%A7%E7%A8%BB%E5%9F%95%E7%A2%BC%E9%A0%AD",
    "image_url": "https://www.travel.taipei/content/images/attractions/223127/1920x1080_attractions-image-xx_kz-dirkmkcabe1deyng.jpg"
  },
  {
    "name": "霞海城隍廟",
    "type": "spot",
    "city": "台北",
    "district": "大同區",
    "description": "月老聞名的信仰中心",
    "tags": [
      "宗教",
      "寺廟",
      "古蹟",
      "歷史"
    ],
    "hours": "依場館或店家為準",
    "cost": "依消費或免費",
    "geo": {
      "lat": null,
      "lng": null
    },
    "gmaps": "https://maps.app.goo.gl/?q=%E9%9C%9E%E6%B5%B7%E5%9F%8E%E9%9A%8D%E5%BB%9F",
    "image_url": "https://www.taiwan.net.tw/att/1/big_scenic_spots/pic_2595_7.jpg"
  },
  {
    "name": "永樂市場",
    "type": "spot",
    "city": "台北",
    "district": "大同區",
    "description": "布市與傳統市場美食",
    "tags": [
      "市場",
      "布料",
      "美食"
    ],
    "hours": "依場館或店家為準",
    "cost": "依消費或免費",
    "geo": {
      "lat": null,
      "lng": null
    },
    "gmaps": "https://maps.app.goo.gl/?q=%E6%B0%B8%E6%A8%82%E5%B8%82%E5%A0%B4",
    "image_url": "https://lh3.googleusercontent.com/places/ANJU3Dvdpwl3HR-CsqyJHpqS_UTdvPuNLFfxzueb0xVMnFDcjISj7ik82_BO_Ff5b6_6s2rr8CK8R7R3h_FLS_F_a98K18zHY8dBmu8=s1600-w4032"
  },
  {
    "name": "保安街商圈",
    "type": "walk",
    "city": "台北",
    "district": "大同區",
    "description": "傳統商號與小吃聚集",
    "tags": [
      "小吃",
      "老街",
      "在地"
    ],
    "hours": "依場館或店家為準",
    "cost": "依消費或免費",
    "geo": {
      "lat": null,
      "lng": null
    },
    "gmaps": "https://maps.app.goo.gl/?q=%E4%BF%9D%E5%AE%89%E8%A1%97%E5%95%86%E5%9C%88",
    "image_url": "https://v3-statics.mirrormedia.mg/images/20201209104235-86f4fa849bc9bed3ab3675b770187c8a-w1600.webP"
  },
  {
    "name": "延平河濱公園",
    "type": "walk",
    "city": "台北",
    "district": "大同區",
    "description": "河濱自行車道與親水空間",
    "tags": [
      "河濱",
      "單車",
      "戶外"
    ],
    "hours": "依場館或店家為準",
    "cost": "依消費或免費",
    "geo": {
      "lat": null,
      "lng": null
    },
    "gmaps": "https://maps.app.goo.gl/?q=%E5%BB%B6%E5%B9%B3%E6%B2%B3%E6%BF%B1%E5%85%AC%E5%9C%92",
    "image_url": "https://www.travel.taipei/image/336867/?r=1666938432479"
  },
  {
    "name": "圓環周邊小吃",
    "type": "cafe",
    "city": "台北",
    "district": "大同區",
    "description": "老臺北小吃復興基地",
    "tags": [
      "小吃",
      "在地",
      "傳統"
    ],
    "hours": "依場館或店家為準",
    "cost": "依消費或免費",
    "geo": {
      "lat": null,
      "lng": null
    },
    "gmaps": "https://maps.app.goo.gl/?q=%E5%9C%93%E7%92%B0%E5%91%A8%E9%82%8A%E5%B0%8F%E5%90%83",
    "image_url": "https://upload.wikimedia.org/wikipedia/commons/f/f5/%E5%BB%BA%E6%88%90%E5%9C%93%E7%92%B0%E9%B3%A5%E7%9E%B0%E5%9C%96%EF%BC%88%E5%8F%B0%E5%8C%97%E5%B8%82%E5%B7%A5%E5%8B%99%E5%B1%80%E6%8F%90%E4%BE%9B%EF%BC%89-800x534.jpg"
  },
  {
    "name": "大稻埕音樂碼頭活動",
    "type": "spot",
    "city": "台北",
    "district": "大同區",
    "description": "不定期音樂會與市集",
    "tags": [
      "音樂",
      "市集",
      "活動"
    ],
    "hours": "依場館或店家為準",
    "cost": "依消費或免費",
    "geo": {
      "lat": null,
      "lng": null
    },
    "gmaps": "https://maps.app.goo.gl/?q=%E5%A4%A7%E7%A8%BB%E5%9F%95%E9%9F%B3%E6%A8%82%E7%A2%BC%E9%A0%AD%E6%B4%BB%E5%8B%95",
    "image_url": "https://cdn-www.cw.com.tw/article/202409/purchase-reauisition-66fa3b1bd6e95.jpg"
  },
  {
    "name": "行天宮",
    "type": "spot",
    "city": "台北",
    "district": "中山區",
    "description": "香火鼎盛的城市信仰中心",
    "tags": [
      "宗教",
      "文化",
      "祈福"
    ],
    "hours": "依場館或店家為準",
    "cost": "依消費或免費",
    "geo": {
      "lat": null,
      "lng": null
    },
    "gmaps": "https://maps.app.goo.gl/?q=%E8%A1%8C%E5%A4%A9%E5%AE%AE",
    "image_url": "https://source.unsplash.com/featured/?%E5%8F%B0%E5%8C%97%20%E8%A1%8C%E5%A4%A9%E5%AE%AE"
  },
  {
    "name": "大佳河濱公園",
    "type": "walk",
    "city": "台北",
    "district": "中山區",
    "description": "寬闊河濱草地與自行車道",
    "tags": [
      "河濱",
      "單車",
      "親子"
    ],
    "hours": "依場館或店家為準",
    "cost": "依消費或免費",
    "geo": {
      "lat": null,
      "lng": null
    },
    "gmaps": "https://maps.app.goo.gl/?q=%E5%A4%A7%E4%BD%B3%E6%B2%B3%E6%BF%B1%E5%85%AC%E5%9C%92",
    "image_url": "https://source.unsplash.com/featured/?%E5%8F%B0%E5%8C%97%20%E5%A4%A7%E4%BD%B3%E6%B2%B3%E6%BF%B1%E5%85%AC%E5%9C%92"
  },
  {
    "name": "林安泰古厝民俗文物館",
    "type": "spot",
    "city": "台北",
    "district": "中山區",
    "description": "古宅園林與民俗展",
    "tags": [
      "古蹟",
      "民俗",
      "建築"
    ],
    "hours": "依場館或店家為準",
    "cost": "依消費或免費",
    "geo": {
      "lat": null,
      "lng": null
    },
    "gmaps": "https://maps.app.goo.gl/?q=%E6%9E%97%E5%AE%89%E6%B3%B0%E5%8F%A4%E5%8E%9D%E6%B0%91%E4%BF%97%E6%96%87%E7%89%A9%E9%A4%A8",
    "image_url": "https://source.unsplash.com/featured/?%E5%8F%B0%E5%8C%97%20%E6%9E%97%E5%AE%89%E6%B3%B0%E5%8F%A4%E5%8E%9D%E6%B0%91%E4%BF%97%E6%96%87%E7%89%A9%E9%A4%A8"
  },
  {
    "name": "美麗華百樂園摩天輪",
    "type": "spot",
    "city": "台北",
    "district": "中山區",
    "description": "摩天輪與購物娛樂",
    "tags": [
      "觀景",
      "購物",
      "娛樂"
    ],
    "hours": "依場館或店家為準",
    "cost": "依消費或免費",
    "geo": {
      "lat": null,
      "lng": null
    },
    "gmaps": "https://maps.app.goo.gl/?q=%E7%BE%8E%E9%BA%97%E8%8F%AF%E7%99%BE%E6%A8%82%E5%9C%92%E6%91%A9%E5%A4%A9%E8%BC%AA",
    "image_url": "https://source.unsplash.com/featured/?%E5%8F%B0%E5%8C%97%20%E7%BE%8E%E9%BA%97%E8%8F%AF%E7%99%BE%E6%A8%82%E5%9C%92%E6%91%A9%E5%A4%A9%E8%BC%AA"
  },
  {
    "name": "晴光商圈",
    "type": "cafe",
    "city": "台北",
    "district": "中山區",
    "description": "晴光市場與在地美食",
    "tags": [
      "市場",
      "小吃",
      "美食"
    ],
    "hours": "依場館或店家為準",
    "cost": "依消費或免費",
    "geo": {
      "lat": null,
      "lng": null
    },
    "gmaps": "https://maps.app.goo.gl/?q=%E6%99%B4%E5%85%89%E5%95%86%E5%9C%88",
    "image_url": "https://source.unsplash.com/featured/?%E5%8F%B0%E5%8C%97%20%E6%99%B4%E5%85%89%E5%95%86%E5%9C%88"
  },
  {
    "name": "花博公園（新生園區）",
    "type": "walk",
    "city": "台北",
    "district": "中山區",
    "description": "都市綠地與展館",
    "tags": [
      "公園",
      "花卉",
      "散步"
    ],
    "hours": "依場館或店家為準",
    "cost": "依消費或免費",
    "geo": {
      "lat": null,
      "lng": null
    },
    "gmaps": "https://maps.app.goo.gl/?q=%E8%8A%B1%E5%8D%9A%E5%85%AC%E5%9C%92%EF%BC%88%E6%96%B0%E7%94%9F%E5%9C%92%E5%8D%80%EF%BC%89",
    "image_url": "https://source.unsplash.com/featured/?%E5%8F%B0%E5%8C%97%20%E8%8A%B1%E5%8D%9A%E5%85%AC%E5%9C%92%EF%BC%88%E6%96%B0%E7%94%9F%E5%9C%92%E5%8D%80%EF%BC%89"
  },
  {
    "name": "榮星花園公園",
    "type": "walk",
    "city": "台北",
    "district": "中山區",
    "description": "社區綠地與步道",
    "tags": [
      "公園",
      "散步",
      "親子"
    ],
    "hours": "依場館或店家為準",
    "cost": "依消費或免費",
    "geo": {
      "lat": null,
      "lng": null
    },
    "gmaps": "https://maps.app.goo.gl/?q=%E6%A6%AE%E6%98%9F%E8%8A%B1%E5%9C%92%E5%85%AC%E5%9C%92",
    "image_url": "https://source.unsplash.com/featured/?%E5%8F%B0%E5%8C%97%20%E6%A6%AE%E6%98%9F%E8%8A%B1%E5%9C%92%E5%85%AC%E5%9C%92"
  },
  {
    "name": "中山站南西商圈",
    "type": "cafe",
    "city": "台北",
    "district": "中山區",
    "description": "百貨林立與文青小店",
    "tags": [
      "購物",
      "咖啡",
      "逛街"
    ],
    "hours": "依場館或店家為準",
    "cost": "依消費或免費",
    "geo": {
      "lat": null,
      "lng": null
    },
    "gmaps": "https://maps.app.goo.gl/?q=%E4%B8%AD%E5%B1%B1%E7%AB%99%E5%8D%97%E8%A5%BF%E5%95%86%E5%9C%88",
    "image_url": "https://source.unsplash.com/featured/?%E5%8F%B0%E5%8C%97%20%E4%B8%AD%E5%B1%B1%E7%AB%99%E5%8D%97%E8%A5%BF%E5%95%86%E5%9C%88"
  },
  {
    "name": "濱江魚市（臺北漁市）",
    "type": "spot",
    "city": "台北",
    "district": "中山區",
    "description": "清晨魚市場體驗與餐飲",
    "tags": [
      "市場",
      "海鮮",
      "在地"
    ],
    "hours": "依場館或店家為準",
    "cost": "依消費或免費",
    "geo": {
      "lat": null,
      "lng": null
    },
    "gmaps": "https://maps.app.goo.gl/?q=%E6%BF%B1%E6%B1%9F%E9%AD%9A%E5%B8%82%EF%BC%88%E8%87%BA%E5%8C%97%E6%BC%81%E5%B8%82%EF%BC%89",
    "image_url": "https://source.unsplash.com/featured/?%E5%8F%B0%E5%8C%97%20%E6%BF%B1%E6%B1%9F%E9%AD%9A%E5%B8%82%EF%BC%88%E8%87%BA%E5%8C%97%E6%BC%81%E5%B8%82%EF%BC%89"
  },
  {
    "name": "濱江國民運動中心周邊",
    "type": "walk",
    "city": "台北",
    "district": "中山區",
    "description": "生活休閒設施與運動",
    "tags": [
      "運動",
      "休閒"
    ],
    "hours": "依場館或店家為準",
    "cost": "依消費或免費",
    "geo": {
      "lat": null,
      "lng": null
    },
    "gmaps": "https://maps.app.goo.gl/?q=%E6%BF%B1%E6%B1%9F%E5%9C%8B%E6%B0%91%E9%81%8B%E5%8B%95%E4%B8%AD%E5%BF%83%E5%91%A8%E9%82%8A",
    "image_url": "https://source.unsplash.com/featured/?%E5%8F%B0%E5%8C%97%20%E6%BF%B1%E6%B1%9F%E5%9C%8B%E6%B0%91%E9%81%8B%E5%8B%95%E4%B8%AD%E5%BF%83%E5%91%A8%E9%82%8A"
  },
  {
    "name": "饒河街觀光夜市",
    "type": "cafe",
    "city": "台北",
    "district": "松山區",
    "description": "東區人氣夜市與在地小吃",
    "tags": [
      "夜市",
      "小吃",
      "在地"
    ],
    "hours": "依場館或店家為準",
    "cost": "依消費或免費",
    "geo": {
      "lat": null,
      "lng": null
    },
    "gmaps": "https://maps.app.goo.gl/?q=%E9%A5%92%E6%B2%B3%E8%A1%97%E8%A7%80%E5%85%89%E5%A4%9C%E5%B8%82",
    "image_url": "https://source.unsplash.com/featured/?%E5%8F%B0%E5%8C%97%20%E9%A5%92%E6%B2%B3%E8%A1%97%E8%A7%80%E5%85%89%E5%A4%9C%E5%B8%82"
  },
  {
    "name": "民生社區",
    "type": "cafe",
    "city": "台北",
    "district": "松山區",
    "description": "質感住宅區與咖啡早午餐",
    "tags": [
      "咖啡",
      "早午餐",
      "散步"
    ],
    "hours": "依場館或店家為準",
    "cost": "依消費或免費",
    "geo": {
      "lat": null,
      "lng": null
    },
    "gmaps": "https://maps.app.goo.gl/?q=%E6%B0%91%E7%94%9F%E7%A4%BE%E5%8D%80",
    "image_url": "https://source.unsplash.com/featured/?%E5%8F%B0%E5%8C%97%20%E6%B0%91%E7%94%9F%E7%A4%BE%E5%8D%80"
  },
  {
    "name": "富錦街",
    "type": "walk",
    "city": "台北",
    "district": "松山區",
    "description": "綠蔭大道與特色店家",
    "tags": [
      "散步",
      "文青",
      "咖啡"
    ],
    "hours": "依場館或店家為準",
    "cost": "依消費或免費",
    "geo": {
      "lat": null,
      "lng": null
    },
    "gmaps": "https://maps.app.goo.gl/?q=%E5%AF%8C%E9%8C%A6%E8%A1%97",
    "image_url": "https://source.unsplash.com/featured/?%E5%8F%B0%E5%8C%97%20%E5%AF%8C%E9%8C%A6%E8%A1%97"
  },
  {
    "name": "松山慈祐宮",
    "type": "spot",
    "city": "台北",
    "district": "松山區",
    "description": "在地信仰與廟埕文化",
    "tags": [
      "宗教",
      "文化"
    ],
    "hours": "依場館或店家為準",
    "cost": "依消費或免費",
    "geo": {
      "lat": null,
      "lng": null
    },
    "gmaps": "https://maps.app.goo.gl/?q=%E6%9D%BE%E5%B1%B1%E6%85%88%E7%A5%90%E5%AE%AE",
    "image_url": "https://source.unsplash.com/featured/?%E5%8F%B0%E5%8C%97%20%E6%9D%BE%E5%B1%B1%E6%85%88%E7%A5%90%E5%AE%AE"
  },
  {
    "name": "臺北小巨蛋",
    "type": "spot",
    "city": "台北",
    "district": "松山區",
    "description": "體育賽事與演唱會場地",
    "tags": [
      "展演",
      "運動",
      "活動"
    ],
    "hours": "依場館或店家為準",
    "cost": "依消費或免費",
    "geo": {
      "lat": null,
      "lng": null
    },
    "gmaps": "https://maps.app.goo.gl/?q=%E8%87%BA%E5%8C%97%E5%B0%8F%E5%B7%A8%E8%9B%8B",
    "image_url": "https://source.unsplash.com/featured/?%E5%8F%B0%E5%8C%97%20%E8%87%BA%E5%8C%97%E5%B0%8F%E5%B7%A8%E8%9B%8B"
  },
  {
    "name": "彩虹橋（松山側）",
    "type": "walk",
    "city": "台北",
    "district": "松山區",
    "description": "夜間打光的河濱景點",
    "tags": [
      "河濱",
      "拍照",
      "散步"
    ],
    "hours": "依場館或店家為準",
    "cost": "依消費或免費",
    "geo": {
      "lat": null,
      "lng": null
    },
    "gmaps": "https://maps.app.goo.gl/?q=%E5%BD%A9%E8%99%B9%E6%A9%8B%EF%BC%88%E6%9D%BE%E5%B1%B1%E5%81%B4%EF%BC%89",
    "image_url": "https://source.unsplash.com/featured/?%E5%8F%B0%E5%8C%97%20%E5%BD%A9%E8%99%B9%E6%A9%8B%EF%BC%88%E6%9D%BE%E5%B1%B1%E5%81%B4%EF%BC%89"
  },
  {
    "name": "三民公園",
    "type": "walk",
    "city": "台北",
    "district": "松山區",
    "description": "社區公園休憩空間",
    "tags": [
      "公園",
      "親子",
      "休閒"
    ],
    "hours": "依場館或店家為準",
    "cost": "依消費或免費",
    "geo": {
      "lat": null,
      "lng": null
    },
    "gmaps": "https://maps.app.goo.gl/?q=%E4%B8%89%E6%B0%91%E5%85%AC%E5%9C%92",
    "image_url": "https://source.unsplash.com/featured/?%E5%8F%B0%E5%8C%97%20%E4%B8%89%E6%B0%91%E5%85%AC%E5%9C%92"
  },
  {
    "name": "八德商圈",
    "type": "cafe",
    "city": "台北",
    "district": "松山區",
    "description": "傳統市場與庶民小吃",
    "tags": [
      "市場",
      "小吃",
      "在地"
    ],
    "hours": "依場館或店家為準",
    "cost": "依消費或免費",
    "geo": {
      "lat": null,
      "lng": null
    },
    "gmaps": "https://maps.app.goo.gl/?q=%E5%85%AB%E5%BE%B7%E5%95%86%E5%9C%88",
    "image_url": "https://source.unsplash.com/featured/?%E5%8F%B0%E5%8C%97%20%E5%85%AB%E5%BE%B7%E5%95%86%E5%9C%88"
  },
  {
    "name": "CITYLINK松山",
    "type": "spot",
    "city": "台北",
    "district": "松山區",
    "description": "車站共構購物中心",
    "tags": [
      "購物",
      "美食"
    ],
    "hours": "依場館或店家為準",
    "cost": "依消費或免費",
    "geo": {
      "lat": null,
      "lng": null
    },
    "gmaps": "https://maps.app.goo.gl/?q=CITYLINK%E6%9D%BE%E5%B1%B1",
    "image_url": "https://source.unsplash.com/featured/?%E5%8F%B0%E5%8C%97%20CITYLINK%E6%9D%BE%E5%B1%B1"
  },
  {
    "name": "饒河觀光夜市福德祠",
    "type": "spot",
    "city": "台北",
    "district": "松山區",
    "description": "夜市旁在地廟宇",
    "tags": [
      "宗教",
      "在地"
    ],
    "hours": "依場館或店家為準",
    "cost": "依消費或免費",
    "geo": {
      "lat": null,
      "lng": null
    },
    "gmaps": "https://maps.app.goo.gl/?q=%E9%A5%92%E6%B2%B3%E8%A7%80%E5%85%89%E5%A4%9C%E5%B8%82%E7%A6%8F%E5%BE%B7%E7%A5%A0",
    "image_url": "https://source.unsplash.com/featured/?%E5%8F%B0%E5%8C%97%20%E9%A5%92%E6%B2%B3%E8%A7%80%E5%85%89%E5%A4%9C%E5%B8%82%E7%A6%8F%E5%BE%B7%E7%A5%A0"
  },
  {
    "name": "龍山寺",
    "type": "spot",
    "city": "台北",
    "district": "萬華區",
    "description": "艋舺代表性古寺",
    "tags": [
      "宗教",
      "文化",
      "古蹟"
    ],
    "hours": "依場館或店家為準",
    "cost": "依消費或免費",
    "geo": {
      "lat": null,
      "lng": null
    },
    "gmaps": "https://maps.app.goo.gl/?q=%E9%BE%8D%E5%B1%B1%E5%AF%BA",
    "image_url": "https://source.unsplash.com/featured/?%E5%8F%B0%E5%8C%97%20%E9%BE%8D%E5%B1%B1%E5%AF%BA"
  },
  {
    "name": "剝皮寮歷史街區",
    "type": "walk",
    "city": "台北",
    "district": "萬華區",
    "description": "清代街屋群與展覽",
    "tags": [
      "歷史",
      "拍照",
      "展覽"
    ],
    "hours": "依場館或店家為準",
    "cost": "依消費或免費",
    "geo": {
      "lat": null,
      "lng": null
    },
    "gmaps": "https://maps.app.goo.gl/?q=%E5%89%9D%E7%9A%AE%E5%AF%AE%E6%AD%B7%E5%8F%B2%E8%A1%97%E5%8D%80",
    "image_url": "https://source.unsplash.com/featured/?%E5%8F%B0%E5%8C%97%20%E5%89%9D%E7%9A%AE%E5%AF%AE%E6%AD%B7%E5%8F%B2%E8%A1%97%E5%8D%80"
  },
  {
    "name": "華西街觀光夜市",
    "type": "cafe",
    "city": "台北",
    "district": "萬華區",
    "description": "觀光夜市與小吃",
    "tags": [
      "夜市",
      "小吃",
      "在地"
    ],
    "hours": "依場館或店家為準",
    "cost": "依消費或免費",
    "geo": {
      "lat": null,
      "lng": null
    },
    "gmaps": "https://maps.app.goo.gl/?q=%E8%8F%AF%E8%A5%BF%E8%A1%97%E8%A7%80%E5%85%89%E5%A4%9C%E5%B8%82",
    "image_url": "https://source.unsplash.com/featured/?%E5%8F%B0%E5%8C%97%20%E8%8F%AF%E8%A5%BF%E8%A1%97%E8%A7%80%E5%85%89%E5%A4%9C%E5%B8%82"
  },
  {
    "name": "西門町商圈",
    "type": "cafe",
    "city": "台北",
    "district": "萬華區",
    "description": "年輕潮流購物娛樂區",
    "tags": [
      "購物",
      "美食",
      "娛樂"
    ],
    "hours": "依場館或店家為準",
    "cost": "依消費或免費",
    "geo": {
      "lat": null,
      "lng": null
    },
    "gmaps": "https://maps.app.goo.gl/?q=%E8%A5%BF%E9%96%80%E7%94%BA%E5%95%86%E5%9C%88",
    "image_url": "https://source.unsplash.com/featured/?%E5%8F%B0%E5%8C%97%20%E8%A5%BF%E9%96%80%E7%94%BA%E5%95%86%E5%9C%88"
  },
  {
    "name": "西本願寺廣場",
    "type": "walk",
    "city": "台北",
    "district": "萬華區",
    "description": "日式遺構與綠地廣場",
    "tags": [
      "歷史",
      "散步",
      "拍照"
    ],
    "hours": "依場館或店家為準",
    "cost": "依消費或免費",
    "geo": {
      "lat": null,
      "lng": null
    },
    "gmaps": "https://maps.app.goo.gl/?q=%E8%A5%BF%E6%9C%AC%E9%A1%98%E5%AF%BA%E5%BB%A3%E5%A0%B4",
    "image_url": "https://source.unsplash.com/featured/?%E5%8F%B0%E5%8C%97%20%E8%A5%BF%E6%9C%AC%E9%A1%98%E5%AF%BA%E5%BB%A3%E5%A0%B4"
  },
  {
    "name": "青年公園",
    "type": "walk",
    "city": "台北",
    "district": "萬華區",
    "description": "大型市區公園與運動場",
    "tags": [
      "公園",
      "運動",
      "親子"
    ],
    "hours": "依場館或店家為準",
    "cost": "依消費或免費",
    "geo": {
      "lat": null,
      "lng": null
    },
    "gmaps": "https://maps.app.goo.gl/?q=%E9%9D%92%E5%B9%B4%E5%85%AC%E5%9C%92",
    "image_url": "https://source.unsplash.com/featured/?%E5%8F%B0%E5%8C%97%20%E9%9D%92%E5%B9%B4%E5%85%AC%E5%9C%92"
  },
  {
    "name": "艋舺清水巖祖師廟",
    "type": "spot",
    "city": "台北",
    "district": "萬華區",
    "description": "在地信仰中心",
    "tags": [
      "宗教",
      "文化"
    ],
    "hours": "依場館或店家為準",
    "cost": "依消費或免費",
    "geo": {
      "lat": null,
      "lng": null
    },
    "gmaps": "https://maps.app.goo.gl/?q=%E8%89%8B%E8%88%BA%E6%B8%85%E6%B0%B4%E5%B7%96%E7%A5%96%E5%B8%AB%E5%BB%9F",
    "image_url": "https://source.unsplash.com/featured/?%E5%8F%B0%E5%8C%97%20%E8%89%8B%E8%88%BA%E6%B8%85%E6%B0%B4%E5%B7%96%E7%A5%96%E5%B8%AB%E5%BB%9F"
  },
  {
    "name": "艋舺老街巡禮",
    "type": "walk",
    "city": "台北",
    "district": "萬華區",
    "description": "傳統商店與在地生活",
    "tags": [
      "老街",
      "在地",
      "散步"
    ],
    "hours": "依場館或店家為準",
    "cost": "依消費或免費",
    "geo": {
      "lat": null,
      "lng": null
    },
    "gmaps": "https://maps.app.goo.gl/?q=%E8%89%8B%E8%88%BA%E8%80%81%E8%A1%97%E5%B7%A1%E7%A6%AE",
    "image_url": "https://source.unsplash.com/featured/?%E5%8F%B0%E5%8C%97%20%E8%89%8B%E8%88%BA%E8%80%81%E8%A1%97%E5%B7%A1%E7%A6%AE"
  },
  {
    "name": "電影主題街區（武昌街）",
    "type": "walk",
    "city": "台北",
    "district": "萬華區",
    "description": "老戲院與電影文化",
    "tags": [
      "文化",
      "拍照"
    ],
    "hours": "依場館或店家為準",
    "cost": "依消費或免費",
    "geo": {
      "lat": null,
      "lng": null
    },
    "gmaps": "https://maps.app.goo.gl/?q=%E9%9B%BB%E5%BD%B1%E4%B8%BB%E9%A1%8C%E8%A1%97%E5%8D%80%EF%BC%88%E6%AD%A6%E6%98%8C%E8%A1%97%EF%BC%89",
    "image_url": "https://source.unsplash.com/featured/?%E5%8F%B0%E5%8C%97%20%E9%9B%BB%E5%BD%B1%E4%B8%BB%E9%A1%8C%E8%A1%97%E5%8D%80%EF%BC%88%E6%AD%A6%E6%98%8C%E8%A1%97%EF%BC%89"
  },
  {
    "name": "桂林路美食圈",
    "type": "cafe",
    "city": "台北",
    "district": "萬華區",
    "description": "庶民小吃與餐館",
    "tags": [
      "美食",
      "在地"
    ],
    "hours": "依場館或店家為準",
    "cost": "依消費或免費",
    "geo": {
      "lat": null,
      "lng": null
    },
    "gmaps": "https://maps.app.goo.gl/?q=%E6%A1%82%E6%9E%97%E8%B7%AF%E7%BE%8E%E9%A3%9F%E5%9C%88",
    "image_url": "https://source.unsplash.com/featured/?%E5%8F%B0%E5%8C%97%20%E6%A1%82%E6%9E%97%E8%B7%AF%E7%BE%8E%E9%A3%9F%E5%9C%88"
  },
  {
    "name": "國立故宮博物院",
    "type": "spot",
    "city": "台北",
    "district": "士林區",
    "description": "世界級中華文物博物館",
    "tags": [
      "博物館",
      "文化",
      "藝術"
    ],
    "hours": "依場館或店家為準",
    "cost": "依消費或免費",
    "geo": {
      "lat": null,
      "lng": null
    },
    "gmaps": "https://maps.app.goo.gl/?q=%E5%9C%8B%E7%AB%8B%E6%95%85%E5%AE%AE%E5%8D%9A%E7%89%A9%E9%99%A2",
    "image_url": "https://source.unsplash.com/featured/?%E5%8F%B0%E5%8C%97%20%E5%9C%8B%E7%AB%8B%E6%95%85%E5%AE%AE%E5%8D%9A%E7%89%A9%E9%99%A2"
  },
  {
    "name": "士林夜市",
    "type": "cafe",
    "city": "台北",
    "district": "士林區",
    "description": "台北規模最大觀光夜市",
    "tags": [
      "夜市",
      "小吃",
      "觀光"
    ],
    "hours": "依場館或店家為準",
    "cost": "依消費或免費",
    "geo": {
      "lat": null,
      "lng": null
    },
    "gmaps": "https://maps.app.goo.gl/?q=%E5%A3%AB%E6%9E%97%E5%A4%9C%E5%B8%82",
    "image_url": "https://source.unsplash.com/featured/?%E5%8F%B0%E5%8C%97%20%E5%A3%AB%E6%9E%97%E5%A4%9C%E5%B8%82"
  },
  {
    "name": "士林官邸公園",
    "type": "walk",
    "city": "台北",
    "district": "士林區",
    "description": "玫瑰園與歷史建築",
    "tags": [
      "公園",
      "花卉",
      "拍照"
    ],
    "hours": "依場館或店家為準",
    "cost": "依消費或免費",
    "geo": {
      "lat": null,
      "lng": null
    },
    "gmaps": "https://maps.app.goo.gl/?q=%E5%A3%AB%E6%9E%97%E5%AE%98%E9%82%B8%E5%85%AC%E5%9C%92",
    "image_url": "https://source.unsplash.com/featured/?%E5%8F%B0%E5%8C%97%20%E5%A3%AB%E6%9E%97%E5%AE%98%E9%82%B8%E5%85%AC%E5%9C%92"
  },
  {
    "name": "天文科學教育館",
    "type": "spot",
    "city": "台北",
    "district": "士林區",
    "description": "天文主題展與劇場",
    "tags": [
      "科學",
      "教育",
      "親子"
    ],
    "hours": "依場館或店家為準",
    "cost": "依消費或免費",
    "geo": {
      "lat": null,
      "lng": null
    },
    "gmaps": "https://maps.app.goo.gl/?q=%E5%A4%A9%E6%96%87%E7%A7%91%E5%AD%B8%E6%95%99%E8%82%B2%E9%A4%A8",
    "image_url": "https://source.unsplash.com/featured/?%E5%8F%B0%E5%8C%97%20%E5%A4%A9%E6%96%87%E7%A7%91%E5%AD%B8%E6%95%99%E8%82%B2%E9%A4%A8"
  },
  {
    "name": "國立臺灣科學教育館",
    "type": "spot",
    "city": "台北",
    "district": "士林區",
    "description": "大型科教展覽與活動",
    "tags": [
      "科學",
      "教育",
      "親子"
    ],
    "hours": "依場館或店家為準",
    "cost": "依消費或免費",
    "geo": {
      "lat": null,
      "lng": null
    },
    "gmaps": "https://maps.app.goo.gl/?q=%E5%9C%8B%E7%AB%8B%E8%87%BA%E7%81%A3%E7%A7%91%E5%AD%B8%E6%95%99%E8%82%B2%E9%A4%A8",
    "image_url": "https://source.unsplash.com/featured/?%E5%8F%B0%E5%8C%97%20%E5%9C%8B%E7%AB%8B%E8%87%BA%E7%81%A3%E7%A7%91%E5%AD%B8%E6%95%99%E8%82%B2%E9%A4%A8"
  },
  {
    "name": "天母商圈",
    "type": "cafe",
    "city": "台北",
    "district": "士林區",
    "description": "異國風情與餐飲街區",
    "tags": [
      "購物",
      "美食",
      "休閒"
    ],
    "hours": "依場館或店家為準",
    "cost": "依消費或免費",
    "geo": {
      "lat": null,
      "lng": null
    },
    "gmaps": "https://maps.app.goo.gl/?q=%E5%A4%A9%E6%AF%8D%E5%95%86%E5%9C%88",
    "image_url": "https://source.unsplash.com/featured/?%E5%8F%B0%E5%8C%97%20%E5%A4%A9%E6%AF%8D%E5%95%86%E5%9C%88"
  },
  {
    "name": "芝山岩生態保護區",
    "type": "walk",
    "city": "台北",
    "district": "士林區",
    "description": "自然步道與史前遺址",
    "tags": [
      "自然",
      "步道",
      "生態"
    ],
    "hours": "依場館或店家為準",
    "cost": "依消費或免費",
    "geo": {
      "lat": null,
      "lng": null
    },
    "gmaps": "https://maps.app.goo.gl/?q=%E8%8A%9D%E5%B1%B1%E5%B2%A9%E7%94%9F%E6%85%8B%E4%BF%9D%E8%AD%B7%E5%8D%80",
    "image_url": "https://source.unsplash.com/featured/?%E5%8F%B0%E5%8C%97%20%E8%8A%9D%E5%B1%B1%E5%B2%A9%E7%94%9F%E6%85%8B%E4%BF%9D%E8%AD%B7%E5%8D%80"
  },
  {
    "name": "至善園",
    "type": "walk",
    "city": "台北",
    "district": "士林區",
    "description": "中式園林，四季景觀",
    "tags": [
      "園林",
      "散步",
      "拍照"
    ],
    "hours": "依場館或店家為準",
    "cost": "依消費或免費",
    "geo": {
      "lat": null,
      "lng": null
    },
    "gmaps": "https://maps.app.goo.gl/?q=%E8%87%B3%E5%96%84%E5%9C%92",
    "image_url": "https://source.unsplash.com/featured/?%E5%8F%B0%E5%8C%97%20%E8%87%B3%E5%96%84%E5%9C%92"
  },
  {
    "name": "陽明溪溝步道群（社子溪口）",
    "type": "walk",
    "city": "台北",
    "district": "士林區",
    "description": "近郊自然步道系統",
    "tags": [
      "步道",
      "自然"
    ],
    "hours": "依場館或店家為準",
    "cost": "依消費或免費",
    "geo": {
      "lat": null,
      "lng": null
    },
    "gmaps": "https://maps.app.goo.gl/?q=%E9%99%BD%E6%98%8E%E6%BA%AA%E6%BA%9D%E6%AD%A5%E9%81%93%E7%BE%A4%EF%BC%88%E7%A4%BE%E5%AD%90%E6%BA%AA%E5%8F%A3%EF%BC%89",
    "image_url": "https://source.unsplash.com/featured/?%E5%8F%B0%E5%8C%97%20%E9%99%BD%E6%98%8E%E6%BA%AA%E6%BA%9D%E6%AD%A5%E9%81%93%E7%BE%A4%EF%BC%88%E7%A4%BE%E5%AD%90%E6%BA%AA%E5%8F%A3%EF%BC%89"
  },
  {
    "name": "士林官邸正館（特展）",
    "type": "spot",
    "city": "台北",
    "district": "士林區",
    "description": "不定期展覽與導覽",
    "tags": [
      "展覽",
      "歷史"
    ],
    "hours": "依場館或店家為準",
    "cost": "依消費或免費",
    "geo": {
      "lat": null,
      "lng": null
    },
    "gmaps": "https://maps.app.goo.gl/?q=%E5%A3%AB%E6%9E%97%E5%AE%98%E9%82%B8%E6%AD%A3%E9%A4%A8%EF%BC%88%E7%89%B9%E5%B1%95%EF%BC%89",
    "image_url": "https://source.unsplash.com/featured/?%E5%8F%B0%E5%8C%97%20%E5%A3%AB%E6%9E%97%E5%AE%98%E9%82%B8%E6%AD%A3%E9%A4%A8%EF%BC%88%E7%89%B9%E5%B1%95%EF%BC%89"
  },
  {
    "name": "北投溫泉博物館",
    "type": "spot",
    "city": "台北",
    "district": "北投區",
    "description": "日式木造建築與溫泉史",
    "tags": [
      "博物館",
      "溫泉",
      "歷史"
    ],
    "hours": "依場館或店家為準",
    "cost": "依消費或免費",
    "geo": {
      "lat": null,
      "lng": null
    },
    "gmaps": "https://maps.app.goo.gl/?q=%E5%8C%97%E6%8A%95%E6%BA%AB%E6%B3%89%E5%8D%9A%E7%89%A9%E9%A4%A8",
    "image_url": "https://source.unsplash.com/featured/?%E5%8F%B0%E5%8C%97%20%E5%8C%97%E6%8A%95%E6%BA%AB%E6%B3%89%E5%8D%9A%E7%89%A9%E9%A4%A8"
  },
  {
    "name": "北投圖書館",
    "type": "spot",
    "city": "台北",
    "district": "北投區",
    "description": "綠建築代表，閱讀空間",
    "tags": [
      "建築",
      "閱讀",
      "拍照"
    ],
    "hours": "依場館或店家為準",
    "cost": "依消費或免費",
    "geo": {
      "lat": null,
      "lng": null
    },
    "gmaps": "https://maps.app.goo.gl/?q=%E5%8C%97%E6%8A%95%E5%9C%96%E6%9B%B8%E9%A4%A8",
    "image_url": "https://source.unsplash.com/featured/?%E5%8F%B0%E5%8C%97%20%E5%8C%97%E6%8A%95%E5%9C%96%E6%9B%B8%E9%A4%A8"
  },
  {
    "name": "地熱谷",
    "type": "spot",
    "city": "台北",
    "district": "北投區",
    "description": "硫磺蒸汽與綠藍色泉池",
    "tags": [
      "自然",
      "溫泉",
      "地質"
    ],
    "hours": "依場館或店家為準",
    "cost": "依消費或免費",
    "geo": {
      "lat": null,
      "lng": null
    },
    "gmaps": "https://maps.app.goo.gl/?q=%E5%9C%B0%E7%86%B1%E8%B0%B7",
    "image_url": "https://source.unsplash.com/featured/?%E5%8F%B0%E5%8C%97%20%E5%9C%B0%E7%86%B1%E8%B0%B7"
  },
  {
    "name": "北投溫泉公園",
    "type": "walk",
    "city": "台北",
    "district": "北投區",
    "description": "溫泉主題公園與步道",
    "tags": [
      "公園",
      "散步",
      "溫泉"
    ],
    "hours": "依場館或店家為準",
    "cost": "依消費或免費",
    "geo": {
      "lat": null,
      "lng": null
    },
    "gmaps": "https://maps.app.goo.gl/?q=%E5%8C%97%E6%8A%95%E6%BA%AB%E6%B3%89%E5%85%AC%E5%9C%92",
    "image_url": "https://source.unsplash.com/featured/?%E5%8F%B0%E5%8C%97%20%E5%8C%97%E6%8A%95%E6%BA%AB%E6%B3%89%E5%85%AC%E5%9C%92"
  },
  {
    "name": "普濟寺",
    "type": "spot",
    "city": "台北",
    "district": "北投區",
    "description": "和風木造寺院建築",
    "tags": [
      "宗教",
      "建築"
    ],
    "hours": "依場館或店家為準",
    "cost": "依消費或免費",
    "geo": {
      "lat": null,
      "lng": null
    },
    "gmaps": "https://maps.app.goo.gl/?q=%E6%99%AE%E6%BF%9F%E5%AF%BA",
    "image_url": "https://source.unsplash.com/featured/?%E5%8F%B0%E5%8C%97%20%E6%99%AE%E6%BF%9F%E5%AF%BA"
  },
  {
    "name": "關渡宮",
    "type": "spot",
    "city": "台北",
    "district": "北投區",
    "description": "北臺灣媽祖廟名剎",
    "tags": [
      "宗教",
      "文化",
      "信仰"
    ],
    "hours": "依場館或店家為準",
    "cost": "依消費或免費",
    "geo": {
      "lat": null,
      "lng": null
    },
    "gmaps": "https://maps.app.goo.gl/?q=%E9%97%9C%E6%B8%A1%E5%AE%AE",
    "image_url": "https://source.unsplash.com/featured/?%E5%8F%B0%E5%8C%97%20%E9%97%9C%E6%B8%A1%E5%AE%AE"
  },
  {
    "name": "關渡自然公園",
    "type": "walk",
    "city": "台北",
    "district": "北投區",
    "description": "濕地生態保護區",
    "tags": [
      "生態",
      "觀鳥",
      "自然"
    ],
    "hours": "依場館或店家為準",
    "cost": "依消費或免費",
    "geo": {
      "lat": null,
      "lng": null
    },
    "gmaps": "https://maps.app.goo.gl/?q=%E9%97%9C%E6%B8%A1%E8%87%AA%E7%84%B6%E5%85%AC%E5%9C%92",
    "image_url": "https://source.unsplash.com/featured/?%E5%8F%B0%E5%8C%97%20%E9%97%9C%E6%B8%A1%E8%87%AA%E7%84%B6%E5%85%AC%E5%9C%92"
  },
  {
    "name": "竹子湖",
    "type": "walk",
    "city": "台北",
    "district": "北投區",
    "description": "季節花田與農園體驗",
    "tags": [
      "賞花",
      "農園",
      "步道"
    ],
    "hours": "依場館或店家為準",
    "cost": "依消費或免費",
    "geo": {
      "lat": null,
      "lng": null
    },
    "gmaps": "https://maps.app.goo.gl/?q=%E7%AB%B9%E5%AD%90%E6%B9%96",
    "image_url": "https://source.unsplash.com/featured/?%E5%8F%B0%E5%8C%97%20%E7%AB%B9%E5%AD%90%E6%B9%96"
  },
  {
    "name": "泉源路溫泉區",
    "type": "spot",
    "city": "台北",
    "district": "北投區",
    "description": "多家溫泉旅宿聚落",
    "tags": [
      "溫泉",
      "放鬆"
    ],
    "hours": "依場館或店家為準",
    "cost": "依消費或免費",
    "geo": {
      "lat": null,
      "lng": null
    },
    "gmaps": "https://maps.app.goo.gl/?q=%E6%B3%89%E6%BA%90%E8%B7%AF%E6%BA%AB%E6%B3%89%E5%8D%80",
    "image_url": "https://source.unsplash.com/featured/?%E5%8F%B0%E5%8C%97%20%E6%B3%89%E6%BA%90%E8%B7%AF%E6%BA%AB%E6%B3%89%E5%8D%80"
  },
  {
    "name": "小觀音山步道",
    "type": "walk",
    "city": "台北",
    "district": "北投區",
    "description": "陽明山系近郊步道",
    "tags": [
      "登山",
      "自然"
    ],
    "hours": "依場館或店家為準",
    "cost": "依消費或免費",
    "geo": {
      "lat": null,
      "lng": null
    },
    "gmaps": "https://maps.app.goo.gl/?q=%E5%B0%8F%E8%A7%80%E9%9F%B3%E5%B1%B1%E6%AD%A5%E9%81%93",
    "image_url": "https://source.unsplash.com/featured/?%E5%8F%B0%E5%8C%97%20%E5%B0%8F%E8%A7%80%E9%9F%B3%E5%B1%B1%E6%AD%A5%E9%81%93"
  },
  {
    "name": "大湖公園",
    "type": "walk",
    "city": "台北",
    "district": "內湖區",
    "description": "湖畔拱橋與親子遊憩",
    "tags": [
      "公園",
      "親子",
      "散步"
    ],
    "hours": "依場館或店家為準",
    "cost": "依消費或免費",
    "geo": {
      "lat": null,
      "lng": null
    },
    "gmaps": "https://maps.app.goo.gl/?q=%E5%A4%A7%E6%B9%96%E5%85%AC%E5%9C%92",
    "image_url": "https://source.unsplash.com/featured/?%E5%8F%B0%E5%8C%97%20%E5%A4%A7%E6%B9%96%E5%85%AC%E5%9C%92"
  },
  {
    "name": "碧湖公園",
    "type": "walk",
    "city": "台北",
    "district": "內湖區",
    "description": "湖景步道與城市綠地",
    "tags": [
      "公園",
      "散步",
      "拍照"
    ],
    "hours": "依場館或店家為準",
    "cost": "依消費或免費",
    "geo": {
      "lat": null,
      "lng": null
    },
    "gmaps": "https://maps.app.goo.gl/?q=%E7%A2%A7%E6%B9%96%E5%85%AC%E5%9C%92",
    "image_url": "https://source.unsplash.com/featured/?%E5%8F%B0%E5%8C%97%20%E7%A2%A7%E6%B9%96%E5%85%AC%E5%9C%92"
  },
  {
    "name": "白石湖吊橋",
    "type": "walk",
    "city": "台北",
    "district": "內湖區",
    "description": "內湖郊山熱門吊橋",
    "tags": [
      "步道",
      "拍照",
      "戶外"
    ],
    "hours": "依場館或店家為準",
    "cost": "依消費或免費",
    "geo": {
      "lat": null,
      "lng": null
    },
    "gmaps": "https://maps.app.goo.gl/?q=%E7%99%BD%E7%9F%B3%E6%B9%96%E5%90%8A%E6%A9%8B",
    "image_url": "https://source.unsplash.com/featured/?%E5%8F%B0%E5%8C%97%20%E7%99%BD%E7%9F%B3%E6%B9%96%E5%90%8A%E6%A9%8B"
  },
  {
    "name": "內溝溪步道",
    "type": "walk",
    "city": "台北",
    "district": "內湖區",
    "description": "親水步道與自然生態",
    "tags": [
      "步道",
      "生態",
      "親子"
    ],
    "hours": "依場館或店家為準",
    "cost": "依消費或免費",
    "geo": {
      "lat": null,
      "lng": null
    },
    "gmaps": "https://maps.app.goo.gl/?q=%E5%85%A7%E6%BA%9D%E6%BA%AA%E6%AD%A5%E9%81%93",
    "image_url": "https://source.unsplash.com/featured/?%E5%8F%B0%E5%8C%97%20%E5%85%A7%E6%BA%9D%E6%BA%AA%E6%AD%A5%E9%81%93"
  },
  {
    "name": "樂活公園",
    "type": "walk",
    "city": "台北",
    "district": "內湖區",
    "description": "親子遊具與季節活動",
    "tags": [
      "公園",
      "親子",
      "活動"
    ],
    "hours": "依場館或店家為準",
    "cost": "依消費或免費",
    "geo": {
      "lat": null,
      "lng": null
    },
    "gmaps": "https://maps.app.goo.gl/?q=%E6%A8%82%E6%B4%BB%E5%85%AC%E5%9C%92",
    "image_url": "https://source.unsplash.com/featured/?%E5%8F%B0%E5%8C%97%20%E6%A8%82%E6%B4%BB%E5%85%AC%E5%9C%92"
  },
  {
    "name": "金面山步道",
    "type": "walk",
    "city": "台北",
    "district": "內湖區",
    "description": "岩稜視野極佳的郊山",
    "tags": [
      "登山",
      "景觀",
      "戶外"
    ],
    "hours": "依場館或店家為準",
    "cost": "依消費或免費",
    "geo": {
      "lat": null,
      "lng": null
    },
    "gmaps": "https://maps.app.goo.gl/?q=%E9%87%91%E9%9D%A2%E5%B1%B1%E6%AD%A5%E9%81%93",
    "image_url": "https://source.unsplash.com/featured/?%E5%8F%B0%E5%8C%97%20%E9%87%91%E9%9D%A2%E5%B1%B1%E6%AD%A5%E9%81%93"
  },
  {
    "name": "瑞光路商辦／內科園區",
    "type": "spot",
    "city": "台北",
    "district": "內湖區",
    "description": "科技園區與美食聚集",
    "tags": [
      "商務",
      "美食"
    ],
    "hours": "依場館或店家為準",
    "cost": "依消費或免費",
    "geo": {
      "lat": null,
      "lng": null
    },
    "gmaps": "https://maps.app.goo.gl/?q=%E7%91%9E%E5%85%89%E8%B7%AF%E5%95%86%E8%BE%A6%EF%BC%8F%E5%85%A7%E7%A7%91%E5%9C%92%E5%8D%80",
    "image_url": "https://source.unsplash.com/featured/?%E5%8F%B0%E5%8C%97%20%E7%91%9E%E5%85%89%E8%B7%AF%E5%95%86%E8%BE%A6%EF%BC%8F%E5%85%A7%E7%A7%91%E5%9C%92%E5%8D%80"
  },
  {
    "name": "碧山巖",
    "type": "spot",
    "city": "台北",
    "district": "內湖區",
    "description": "寺廟與觀景平台",
    "tags": [
      "宗教",
      "觀景",
      "拍照"
    ],
    "hours": "依場館或店家為準",
    "cost": "依消費或免費",
    "geo": {
      "lat": null,
      "lng": null
    },
    "gmaps": "https://maps.app.goo.gl/?q=%E7%A2%A7%E5%B1%B1%E5%B7%96",
    "image_url": "https://source.unsplash.com/featured/?%E5%8F%B0%E5%8C%97%20%E7%A2%A7%E5%B1%B1%E5%B7%96"
  },
  {
    "name": "彩虹橋（內湖側）",
    "type": "walk",
    "city": "台北",
    "district": "內湖區",
    "description": "河濱夜景與連通橋",
    "tags": [
      "河濱",
      "拍照",
      "散步"
    ],
    "hours": "依場館或店家為準",
    "cost": "依消費或免費",
    "geo": {
      "lat": null,
      "lng": null
    },
    "gmaps": "https://maps.app.goo.gl/?q=%E5%BD%A9%E8%99%B9%E6%A9%8B%EF%BC%88%E5%85%A7%E6%B9%96%E5%81%B4%EF%BC%89",
    "image_url": "https://source.unsplash.com/featured/?%E5%8F%B0%E5%8C%97%20%E5%BD%A9%E8%99%B9%E6%A9%8B%EF%BC%88%E5%85%A7%E6%B9%96%E5%81%B4%EF%BC%89"
  },
  {
    "name": "內湖花市（週末）",
    "type": "spot",
    "city": "台北",
    "district": "內湖區",
    "description": "園藝植栽與花卉選購",
    "tags": [
      "花卉",
      "市集"
    ],
    "hours": "依場館或店家為準",
    "cost": "依消費或免費",
    "geo": {
      "lat": null,
      "lng": null
    },
    "gmaps": "https://maps.app.goo.gl/?q=%E5%85%A7%E6%B9%96%E8%8A%B1%E5%B8%82%EF%BC%88%E9%80%B1%E6%9C%AB%EF%BC%89",
    "image_url": "https://source.unsplash.com/featured/?%E5%8F%B0%E5%8C%97%20%E5%85%A7%E6%B9%96%E8%8A%B1%E5%B8%82%EF%BC%88%E9%80%B1%E6%9C%AB%EF%BC%89"
  },
  {
    "name": "南港展覽館",
    "type": "spot",
    "city": "台北",
    "district": "南港區",
    "description": "國際展覽與大型活動場域",
    "tags": [
      "展覽",
      "會展",
      "活動"
    ],
    "hours": "依場館或店家為準",
    "cost": "依消費或免費",
    "geo": {
      "lat": null,
      "lng": null
    },
    "gmaps": "https://maps.app.goo.gl/?q=%E5%8D%97%E6%B8%AF%E5%B1%95%E8%A6%BD%E9%A4%A8",
    "image_url": "https://source.unsplash.com/featured/?%E5%8F%B0%E5%8C%97%20%E5%8D%97%E6%B8%AF%E5%B1%95%E8%A6%BD%E9%A4%A8"
  },
  {
    "name": "南港軟體園區",
    "type": "spot",
    "city": "台北",
    "district": "南港區",
    "description": "園區周邊餐飲與商務聚落",
    "tags": [
      "商務",
      "美食"
    ],
    "hours": "依場館或店家為準",
    "cost": "依消費或免費",
    "geo": {
      "lat": null,
      "lng": null
    },
    "gmaps": "https://maps.app.goo.gl/?q=%E5%8D%97%E6%B8%AF%E8%BB%9F%E9%AB%94%E5%9C%92%E5%8D%80",
    "image_url": "https://source.unsplash.com/featured/?%E5%8F%B0%E5%8C%97%20%E5%8D%97%E6%B8%AF%E8%BB%9F%E9%AB%94%E5%9C%92%E5%8D%80"
  },
  {
    "name": "瓶蓋工廠台北製造所",
    "type": "spot",
    "city": "台北",
    "district": "南港區",
    "description": "老廠房再生文創聚落",
    "tags": [
      "文創",
      "展覽",
      "市集"
    ],
    "hours": "依場館或店家為準",
    "cost": "依消費或免費",
    "geo": {
      "lat": null,
      "lng": null
    },
    "gmaps": "https://maps.app.goo.gl/?q=%E7%93%B6%E8%93%8B%E5%B7%A5%E5%BB%A0%E5%8F%B0%E5%8C%97%E8%A3%BD%E9%80%A0%E6%89%80",
    "image_url": "https://source.unsplash.com/featured/?%E5%8F%B0%E5%8C%97%20%E7%93%B6%E8%93%8B%E5%B7%A5%E5%BB%A0%E5%8F%B0%E5%8C%97%E8%A3%BD%E9%80%A0%E6%89%80"
  },
  {
    "name": "三重疊翠步道（南港山系）",
    "type": "walk",
    "city": "台北",
    "district": "南港區",
    "description": "連稜步道展望大台北",
    "tags": [
      "登山",
      "景觀",
      "戶外"
    ],
    "hours": "依場館或店家為準",
    "cost": "依消費或免費",
    "geo": {
      "lat": null,
      "lng": null
    },
    "gmaps": "https://maps.app.goo.gl/?q=%E4%B8%89%E9%87%8D%E7%96%8A%E7%BF%A0%E6%AD%A5%E9%81%93%EF%BC%88%E5%8D%97%E6%B8%AF%E5%B1%B1%E7%B3%BB%EF%BC%89",
    "image_url": "https://source.unsplash.com/featured/?%E5%8F%B0%E5%8C%97%20%E4%B8%89%E9%87%8D%E7%96%8A%E7%BF%A0%E6%AD%A5%E9%81%93%EF%BC%88%E5%8D%97%E6%B8%AF%E5%B1%B1%E7%B3%BB%EF%BC%89"
  },
  {
    "name": "虎山親山步道（南港口）",
    "type": "walk",
    "city": "台北",
    "district": "南港區",
    "description": "信義四獸山連線之一",
    "tags": [
      "登山",
      "自然"
    ],
    "hours": "依場館或店家為準",
    "cost": "依消費或免費",
    "geo": {
      "lat": null,
      "lng": null
    },
    "gmaps": "https://maps.app.goo.gl/?q=%E8%99%8E%E5%B1%B1%E8%A6%AA%E5%B1%B1%E6%AD%A5%E9%81%93%EF%BC%88%E5%8D%97%E6%B8%AF%E5%8F%A3%EF%BC%89",
    "image_url": "https://source.unsplash.com/featured/?%E5%8F%B0%E5%8C%97%20%E8%99%8E%E5%B1%B1%E8%A6%AA%E5%B1%B1%E6%AD%A5%E9%81%93%EF%BC%88%E5%8D%97%E6%B8%AF%E5%8F%A3%EF%BC%89"
  },
  {
    "name": "九五峰",
    "type": "walk",
    "city": "台北",
    "district": "南港區",
    "description": "俯瞰信義與南港的制高點",
    "tags": [
      "登山",
      "夜景"
    ],
    "hours": "依場館或店家為準",
    "cost": "依消費或免費",
    "geo": {
      "lat": null,
      "lng": null
    },
    "gmaps": "https://maps.app.goo.gl/?q=%E4%B9%9D%E4%BA%94%E5%B3%B0",
    "image_url": "https://source.unsplash.com/featured/?%E5%8F%B0%E5%8C%97%20%E4%B9%9D%E4%BA%94%E5%B3%B0"
  },
  {
    "name": "中研院人文社科館周邊",
    "type": "spot",
    "city": "台北",
    "district": "南港區",
    "description": "學術園區與展場",
    "tags": [
      "學術",
      "展覽"
    ],
    "hours": "依場館或店家為準",
    "cost": "依消費或免費",
    "geo": {
      "lat": null,
      "lng": null
    },
    "gmaps": "https://maps.app.goo.gl/?q=%E4%B8%AD%E7%A0%94%E9%99%A2%E4%BA%BA%E6%96%87%E7%A4%BE%E7%A7%91%E9%A4%A8%E5%91%A8%E9%82%8A",
    "image_url": "https://source.unsplash.com/featured/?%E5%8F%B0%E5%8C%97%20%E4%B8%AD%E7%A0%94%E9%99%A2%E4%BA%BA%E6%96%87%E7%A4%BE%E7%A7%91%E9%A4%A8%E5%91%A8%E9%82%8A"
  },
  {
    "name": "南港公園",
    "type": "walk",
    "city": "台北",
    "district": "南港區",
    "description": "社區綠地與運動設施",
    "tags": [
      "公園",
      "運動",
      "親子"
    ],
    "hours": "依場館或店家為準",
    "cost": "依消費或免費",
    "geo": {
      "lat": null,
      "lng": null
    },
    "gmaps": "https://maps.app.goo.gl/?q=%E5%8D%97%E6%B8%AF%E5%85%AC%E5%9C%92",
    "image_url": "https://source.unsplash.com/featured/?%E5%8F%B0%E5%8C%97%20%E5%8D%97%E6%B8%AF%E5%85%AC%E5%9C%92"
  },
  {
    "name": "CITYLINK南港",
    "type": "spot",
    "city": "台北",
    "district": "南港區",
    "description": "車站共構商場與美食",
    "tags": [
      "購物",
      "美食"
    ],
    "hours": "依場館或店家為準",
    "cost": "依消費或免費",
    "geo": {
      "lat": null,
      "lng": null
    },
    "gmaps": "https://maps.app.goo.gl/?q=CITYLINK%E5%8D%97%E6%B8%AF",
    "image_url": "https://source.unsplash.com/featured/?%E5%8F%B0%E5%8C%97%20CITYLINK%E5%8D%97%E6%B8%AF"
  },
  {
    "name": "南港車站（四鐵共構）",
    "type": "spot",
    "city": "台北",
    "district": "南港區",
    "description": "交通樞紐與城市建築",
    "tags": [
      "交通",
      "建築"
    ],
    "hours": "依場館或店家為準",
    "cost": "依消費或免費",
    "geo": {
      "lat": null,
      "lng": null
    },
    "gmaps": "https://maps.app.goo.gl/?q=%E5%8D%97%E6%B8%AF%E8%BB%8A%E7%AB%99%EF%BC%88%E5%9B%9B%E9%90%B5%E5%85%B1%E6%A7%8B%EF%BC%89",
    "image_url": "https://source.unsplash.com/featured/?%E5%8F%B0%E5%8C%97%20%E5%8D%97%E6%B8%AF%E8%BB%8A%E7%AB%99%EF%BC%88%E5%9B%9B%E9%90%B5%E5%85%B1%E6%A7%8B%EF%BC%89"
  },
  {
    "name": "貓空纜車",
    "type": "spot",
    "city": "台北",
    "district": "文山區",
    "description": "山城纜車體驗與景觀",
    "tags": [
      "纜車",
      "觀景",
      "旅遊"
    ],
    "hours": "依場館或店家為準",
    "cost": "依消費或免費",
    "geo": {
      "lat": null,
      "lng": null
    },
    "gmaps": "https://maps.app.goo.gl/?q=%E8%B2%93%E7%A9%BA%E7%BA%9C%E8%BB%8A",
    "image_url": "https://source.unsplash.com/featured/?%E5%8F%B0%E5%8C%97%20%E8%B2%93%E7%A9%BA%E7%BA%9C%E8%BB%8A"
  },
  {
    "name": "臺北市立動物園（木柵）",
    "type": "spot",
    "city": "台北",
    "district": "文山區",
    "description": "全齡向動物園區",
    "tags": [
      "動物園",
      "親子",
      "教育"
    ],
    "hours": "依場館或店家為準",
    "cost": "依消費或免費",
    "geo": {
      "lat": null,
      "lng": null
    },
    "gmaps": "https://maps.app.goo.gl/?q=%E8%87%BA%E5%8C%97%E5%B8%82%E7%AB%8B%E5%8B%95%E7%89%A9%E5%9C%92%EF%BC%88%E6%9C%A8%E6%9F%B5%EF%BC%89",
    "image_url": "https://source.unsplash.com/featured/?%E5%8F%B0%E5%8C%97%20%E8%87%BA%E5%8C%97%E5%B8%82%E7%AB%8B%E5%8B%95%E7%89%A9%E5%9C%92%EF%BC%88%E6%9C%A8%E6%9F%B5%EF%BC%89"
  },
  {
    "name": "指南宮",
    "type": "spot",
    "city": "台北",
    "district": "文山區",
    "description": "山腰宮殿式廟宇與步道",
    "tags": [
      "宗教",
      "觀景",
      "步道"
    ],
    "hours": "依場館或店家為準",
    "cost": "依消費或免費",
    "geo": {
      "lat": null,
      "lng": null
    },
    "gmaps": "https://maps.app.goo.gl/?q=%E6%8C%87%E5%8D%97%E5%AE%AE",
    "image_url": "https://source.unsplash.com/featured/?%E5%8F%B0%E5%8C%97%20%E6%8C%87%E5%8D%97%E5%AE%AE"
  },
  {
    "name": "政大校園",
    "type": "walk",
    "city": "台北",
    "district": "文山區",
    "description": "山城校園與人文氣息",
    "tags": [
      "校園",
      "散步"
    ],
    "hours": "依場館或店家為準",
    "cost": "依消費或免費",
    "geo": {
      "lat": null,
      "lng": null
    },
    "gmaps": "https://maps.app.goo.gl/?q=%E6%94%BF%E5%A4%A7%E6%A0%A1%E5%9C%92",
    "image_url": "https://source.unsplash.com/featured/?%E5%8F%B0%E5%8C%97%20%E6%94%BF%E5%A4%A7%E6%A0%A1%E5%9C%92"
  },
  {
    "name": "貓空茶園",
    "type": "cafe",
    "city": "台北",
    "district": "文山區",
    "description": "茶餐與觀景步道",
    "tags": [
      "茶屋",
      "景觀",
      "美食"
    ],
    "hours": "依場館或店家為準",
    "cost": "依消費或免費",
    "geo": {
      "lat": null,
      "lng": null
    },
    "gmaps": "https://maps.app.goo.gl/?q=%E8%B2%93%E7%A9%BA%E8%8C%B6%E5%9C%92",
    "image_url": "https://source.unsplash.com/featured/?%E5%8F%B0%E5%8C%97%20%E8%B2%93%E7%A9%BA%E8%8C%B6%E5%9C%92"
  },
  {
    "name": "仙跡岩步道",
    "type": "walk",
    "city": "台北",
    "district": "文山區",
    "description": "近郊親民步道",
    "tags": [
      "登山",
      "自然",
      "戶外"
    ],
    "hours": "依場館或店家為準",
    "cost": "依消費或免費",
    "geo": {
      "lat": null,
      "lng": null
    },
    "gmaps": "https://maps.app.goo.gl/?q=%E4%BB%99%E8%B7%A1%E5%B2%A9%E6%AD%A5%E9%81%93",
    "image_url": "https://source.unsplash.com/featured/?%E5%8F%B0%E5%8C%97%20%E4%BB%99%E8%B7%A1%E5%B2%A9%E6%AD%A5%E9%81%93"
  },
  {
    "name": "景美夜市",
    "type": "cafe",
    "city": "台北",
    "district": "文山區",
    "description": "在地人氣夜市",
    "tags": [
      "夜市",
      "小吃",
      "在地"
    ],
    "hours": "依場館或店家為準",
    "cost": "依消費或免費",
    "geo": {
      "lat": null,
      "lng": null
    },
    "gmaps": "https://maps.app.goo.gl/?q=%E6%99%AF%E7%BE%8E%E5%A4%9C%E5%B8%82",
    "image_url": "https://source.unsplash.com/featured/?%E5%8F%B0%E5%8C%97%20%E6%99%AF%E7%BE%8E%E5%A4%9C%E5%B8%82"
  },
  {
    "name": "景美人權文化園區",
    "type": "spot",
    "city": "台北",
    "district": "文山區",
    "description": "人權史主題園區",
    "tags": [
      "歷史",
      "文化"
    ],
    "hours": "依場館或店家為準",
    "cost": "依消費或免費",
    "geo": {
      "lat": null,
      "lng": null
    },
    "gmaps": "https://maps.app.goo.gl/?q=%E6%99%AF%E7%BE%8E%E4%BA%BA%E6%AC%8A%E6%96%87%E5%8C%96%E5%9C%92%E5%8D%80",
    "image_url": "https://source.unsplash.com/featured/?%E5%8F%B0%E5%8C%97%20%E6%99%AF%E7%BE%8E%E4%BA%BA%E6%AC%8A%E6%96%87%E5%8C%96%E5%9C%92%E5%8D%80"
  },
  {
    "name": "政治大學周邊小吃街",
    "type": "cafe",
    "city": "台北",
    "district": "文山區",
    "description": "學生美食聚集",
    "tags": [
      "美食",
      "平價"
    ],
    "hours": "依場館或店家為準",
    "cost": "依消費或免費",
    "geo": {
      "lat": null,
      "lng": null
    },
    "gmaps": "https://maps.app.goo.gl/?q=%E6%94%BF%E6%B2%BB%E5%A4%A7%E5%AD%B8%E5%91%A8%E9%82%8A%E5%B0%8F%E5%90%83%E8%A1%97",
    "image_url": "https://source.unsplash.com/featured/?%E5%8F%B0%E5%8C%97%20%E6%94%BF%E6%B2%BB%E5%A4%A7%E5%AD%B8%E5%91%A8%E9%82%8A%E5%B0%8F%E5%90%83%E8%A1%97"
  },
  {
    "name": "樟山寺步道",
    "type": "walk",
    "city": "台北",
    "district": "文山區",
    "description": "茶園串聯的景觀步道",
    "tags": [
      "步道",
      "景觀",
      "自然"
    ],
    "hours": "依場館或店家為準",
    "cost": "依消費或免費",
    "geo": {
      "lat": null,
      "lng": null
    },
    "gmaps": "https://maps.app.goo.gl/?q=%E6%A8%9F%E5%B1%B1%E5%AF%BA%E6%AD%A5%E9%81%93",
    "image_url": "https://source.unsplash.com/featured/?%E5%8F%B0%E5%8C%97%20%E6%A8%9F%E5%B1%B1%E5%AF%BA%E6%AD%A5%E9%81%93"
  },
  {
    "name": "象山六巨石觀景點",
    "type": "walk",
    "city": "台北",
    "district": "信義區",
    "description": "象山步道支線的熱門打卡點，近距離眺望台北101天際線",
    "tags": [
      "夜景",
      "登山",
      "拍照"
    ],
    "hours": "全天開放",
    "cost": "免費",
    "geo": {
      "lat": null,
      "lng": null
    },
    "gmaps": "[https://www.google.com/maps/search/?api=1&query=象山六巨石觀景點](https://www.google.com/maps/search/?api=1&query=象山六巨石觀景點)",
    "image_url": "https://www.travel.taipei/image/222131/?r=1637654105614"
  },
  {
    "name": "松德公園",
    "type": "walk",
    "city": "台北",
    "district": "信義區",
    "description": "社區綠地與親子遊具，午後散步的清幽角落",
    "tags": [
      "公園",
      "親子",
      "散步"
    ],
    "hours": "05:00–22:00（以現場公告為準）",
    "cost": "免費",
    "geo": {
      "lat": null,
      "lng": null
    },
    "gmaps": "[https://www.google.com/maps/search/?api=1&query=松德公園](https://www.google.com/maps/search/?api=1&query=松德公園)",
    "image_url": "https://nienie.tw/wp-content/uploads/2023/05/%E5%8F%B0%E5%8C%97%E5%B8%82%E5%85%AC%E5%9C%92%EF%BD%9C%E4%BF%A1%E7%BE%A9%E5%8D%80%E5%85%92%E7%AB%A5%E5%85%AC%E5%9C%92%EF%BD%9C%E6%9D%BE%E5%BE%B7%E5%85%AC%E5%9C%92101%E9%99%84%E8%BF%91%E5%B8%82%E4%B8%AD%E5%BF%83%E7%9A%84%E6%A3%AE%E6%9E%97%E9%81%8A%E6%88%B2%E5%A0%B4-4838.jpg"
  },
  {
    "name": "象山永春崗公園天空步道",
    "type": "walk",
    "city": "台北",
    "district": "信義區",
    "description": "木棧道穿梭樹梢，俯瞰信義區街景",
    "tags": [
      "步道",
      "景觀",
      "自然"
    ],
    "hours": "全天開放",
    "cost": "免費",
    "geo": {
      "lat": null,
      "lng": null
    },
    "gmaps": "[https://www.google.com/maps/search/?api=1&query=永春崗公園](https://www.google.com/maps/search/?api=1&query=永春崗公園)",
    "image_url": "https://dynamic-media-cdn.tripadvisor.com/media/photo-o/29/9f/16/1d/caption.jpg?w=900&h=500&s=1"
  },
  {
    "name": "和平公園（大安）",
    "type": "walk",
    "city": "台北",
    "district": "大安區",
    "description": "鄰近師大商圈的社區公園，跑步散步友善",
    "tags": [
      "公園",
      "運動",
      "散步"
    ],
    "hours": "05:00–22:00（以現場公告為準）",
    "cost": "免費",
    "geo": {
      "lat": null,
      "lng": null
    },
    "gmaps": "[https://www.google.com/maps/search/?api=1&query=和平公園](https://www.google.com/maps/search/?api=1&query=和平公園) 大安",
    "image_url": "https://lh3.googleusercontent.com/gps-cs-s/AC9h4npG8KtqAek0jooSL0rhGa1S_ng6ifB9TVc7WWnMgerI1tlAgDtiQVYJgMHforc1mcxrhv-huXOLA977q_JW5EwI7r4X95ahp1DpeRtOATMoVNzT0GXchBRZoApjz5BS9xc3xeTR=w426-h240-k-no"
  },
  {
    "name": "溫州街書店群",
    "type": "cafe",
    "city": "台北",
    "district": "大安區",
    "description": "巷弄間的獨立書店與咖啡館聚落，文青漫遊路線",
    "tags": [
      "文青",
      "咖啡",
      "書店"
    ],
    "hours": "依店家為準",
    "cost": "依消費",
    "geo": {
      "lat": null,
      "lng": null
    },
    "gmaps": "[https://maps.app.goo.gl/Brrr5FoUdSgTm3me8) ",
    "image_url": "https://encrypted-tbn0.gstatic.com/images?q=tbn:ANd9GcRoEV3VRkb3_lzcK1MfsjiE566fl9GKWqlY0HfdaMqDEHosRPo3umieZWosSUKva5sXiFQ&usqp=CAU"
  },
  {
    "name": "北門（承恩門）",
    "type": "spot",
    "city": "台北",
    "district": "中正區",
    "description": "清代城門古蹟，周邊行人友善廣場適合拍照",
    "tags": [
      "歷史",
      "地標",
      "拍照"
    ],
    "hours": "戶外全天；城門內部開放依公告",
    "cost": "免費",
    "geo": {
      "lat": null,
      "lng": null
    },
    "gmaps": "[https://www.google.com/maps/search/?api=1&query=北門](https://www.google.com/maps/search/?api=1&query=北門) 承恩門",
    "image_url": "https://source.unsplash.com/featured/?%E5%8F%B0%E5%8C%97%20%E5%8C%97%E9%96%80%EF%BC%88%E6%89%BF%E6%81%A9%E9%96%80%EF%BC%89"
  },
  {
    "name": "臺博館鐵道部園區",
    "type": "spot",
    "city": "台北",
    "district": "中正區",
    "description": "日式辦公廳舍修復，展示鐵道文化與城市記憶",
    "tags": [
      "博物館",
      "鐵道",
      "歷史"
    ],
    "hours": "依館方公告",
    "cost": "依票價或免費日",
    "geo": {
      "lat": null,
      "lng": null
    },
    "gmaps": "[https://www.google.com/maps/search/?api=1&query=臺博館](https://www.google.com/maps/search/?api=1&query=臺博館) 鐵道部園區",
    "image_url": "https://source.unsplash.com/featured/?%E5%8F%B0%E5%8C%97%20%E8%87%BA%E5%8D%9A%E9%A4%A8%E9%90%B5%E9%81%93%E9%83%A8%E5%9C%92%E5%8D%80"
  },
  {
    "name": "思源街綠園道",
    "type": "walk",
    "city": "台北",
    "district": "中正區",
    "description": "連結古亭河濱的社區綠帶，寧靜好走",
    "tags": [
      "綠道",
      "散步",
      "社區"
    ],
    "hours": "全天開放",
    "cost": "免費",
    "geo": {
      "lat": null,
      "lng": null
    },
    "gmaps": "[https://www.google.com/maps/search/?api=1&query=思源街](https://www.google.com/maps/search/?api=1&query=思源街) 綠園道",
    "image_url": "https://source.unsplash.com/featured/?%E5%8F%B0%E5%8C%97%20%E6%80%9D%E6%BA%90%E8%A1%97%E7%B6%A0%E5%9C%92%E9%81%93"
  },
  {
    "name": "延三夜市",
    "type": "cafe",
    "city": "台北",
    "district": "大同區",
    "description": "在地口味小吃聚集的老字號夜市",
    "tags": [
      "夜市",
      "小吃",
      "在地"
    ],
    "hours": "傍晚至深夜（依店家）",
    "cost": "依消費",
    "geo": {
      "lat": null,
      "lng": null
    },
    "gmaps": "[https://www.google.com/maps/search/?api=1&query=延三夜市](https://www.google.com/maps/search/?api=1&query=延三夜市)",
    "image_url": "https://beri.tw/wp-content/uploads/2023/04/tepan-7.jpg"
  },
  {
    "name": "台北當代藝術館（MOCA）",
    "type": "spot",
    "city": "台北",
    "district": "大同區",
    "description": "歷史校舍改建，展出當代藝術與策展",
    "tags": [
      "藝術",
      "展覽",
      "建築"
    ],
    "hours": "依館方公告（週一休）",
    "cost": "依票價或免費日",
    "geo": {
      "lat": null,
      "lng": null
    },
    "gmaps": "[https://www.google.com/maps/search/?api=1&query=台北當代藝術館](https://www.google.com/maps/search/?api=1&query=台北當代藝術館)",
    "image_url": "https://d3d9mb8xdsbq52.cloudfront.net/s3/210224/180708udv.jpg"
  },
  {
    "name": "太原商圈布市巷弄",
    "type": "cafe",
    "city": "台北",
    "district": "大同區",
    "description": "布行與手作材料店密集，也有隱藏小吃",
    "tags": [
      "布料",
      "手作",
      "在地"
    ],
    "hours": "依店家為準",
    "cost": "依消費",
    "geo": {
      "lat": null,
      "lng": null
    },
    "gmaps": "[https://www.google.com/maps/search/?api=1&query=太原路](https://www.google.com/maps/search/?api=1&query=太原路) 布市",
    "image_url": "https://cdn.walkerland.com.tw/taipeiwalker/master/images/RpwcN3Sm9GdMv4HJmmnYqLOtgwKtkeNqaei7A6Yv.jpg"
  },
  {
    "name": "晴光公園旁日式建築群（民權西路）",
    "type": "walk",
    "city": "台北",
    "district": "中山區",
    "description": "巷弄間保留的木造宿舍群，靜謐好拍",
    "tags": [
      "老屋",
      "散步",
      "拍照"
    ],
    "hours": "戶外全天；開放空間依公告",
    "cost": "免費",
    "geo": {
      "lat": null,
      "lng": null
    },
    "gmaps": "[https://www.google.com/maps/search/?api=1&query=晴光公園](https://www.google.com/maps/search/?api=1&query=晴光公園) 日式建築",
    "image_url": "https://source.unsplash.com/featured/?%E5%8F%B0%E5%8C%97%20%E6%99%B4%E5%85%89%E5%85%AC%E5%9C%92%E6%97%81%E6%97%A5%E5%BC%8F%E5%BB%BA%E7%AF%89%E7%BE%A4%EF%BC%88%E6%B0%91%E6%AC%8A%E8%A5%BF%E8%B7%AF%EF%BC%89"
  },
  {
    "name": "行天宮地下書香園地",
    "type": "spot",
    "city": "台北",
    "district": "中山區",
    "description": "免費閱讀空間與書展，雨天備案",
    "tags": [
      "閱讀",
      "文化",
      "雨天備案"
    ],
    "hours": "依場館公告",
    "cost": "免費",
    "geo": {
      "lat": null,
      "lng": null
    },
    "gmaps": "[https://www.google.com/maps/search/?api=1&query=行天宮](https://www.google.com/maps/search/?api=1&query=行天宮) 書香園地",
    "image_url": "https://source.unsplash.com/featured/?%E5%8F%B0%E5%8C%97%20%E8%A1%8C%E5%A4%A9%E5%AE%AE%E5%9C%B0%E4%B8%8B%E6%9B%B8%E9%A6%99%E5%9C%92%E5%9C%B0"
  },
  {
    "name": "濱江果菜市場清晨體驗",
    "type": "spot",
    "city": "台北",
    "district": "中山區",
    "description": "與魚市不同的清晨批發市場，感受城市早晨節奏",
    "tags": [
      "市場",
      "在地",
      "清晨"
    ],
    "hours": "清晨時段為主（依市場公告）",
    "cost": "依消費",
    "geo": {
      "lat": null,
      "lng": null
    },
    "gmaps": "[https://www.google.com/maps/search/?api=1&query=濱江果菜市場](https://www.google.com/maps/search/?api=1&query=濱江果菜市場)",
    "image_url": "https://source.unsplash.com/featured/?%E5%8F%B0%E5%8C%97%20%E6%BF%B1%E6%B1%9F%E6%9E%9C%E8%8F%9C%E5%B8%82%E5%A0%B4%E6%B8%85%E6%99%A8%E9%AB%94%E9%A9%97"
  },
  {
    "name": "三民綠園道（民生社區）",
    "type": "walk",
    "city": "台北",
    "district": "松山區",
    "description": "筆直綠樹大道，自行車與散步都舒適",
    "tags": [
      "綠道",
      "散步",
      "單車"
    ],
    "hours": "全天開放",
    "cost": "免費",
    "geo": {
      "lat": null,
      "lng": null
    },
    "gmaps": "[https://www.google.com/maps/search/?api=1&query=三民綠園道](https://www.google.com/maps/search/?api=1&query=三民綠園道) 民生社區",
    "image_url": "https://source.unsplash.com/featured/?%E5%8F%B0%E5%8C%97%20%E4%B8%89%E6%B0%91%E7%B6%A0%E5%9C%92%E9%81%93%EF%BC%88%E6%B0%91%E7%94%9F%E7%A4%BE%E5%8D%80%EF%BC%89"
  },
  {
    "name": "民權市場早午餐巡禮",
    "type": "cafe",
    "city": "台北",
    "district": "松山區",
    "description": "老市場內外藏著多家人氣早午餐與麵包店",
    "tags": [
      "市場",
      "早午餐",
      "在地"
    ],
    "hours": "清晨至中午為主（依店家）",
    "cost": "依消費",
    "geo": {
      "lat": null,
      "lng": null
    },
    "gmaps": "[https://www.google.com/maps/search/?api=1&query=民權市場](https://www.google.com/maps/search/?api=1&query=民權市場) 松山",
    "image_url": "https://source.unsplash.com/featured/?%E5%8F%B0%E5%8C%97%20%E6%B0%91%E6%AC%8A%E5%B8%82%E5%A0%B4%E6%97%A9%E5%8D%88%E9%A4%90%E5%B7%A1%E7%A6%AE"
  },
  {
    "name": "健康步道河濱（松山段）",
    "type": "walk",
    "city": "台北",
    "district": "松山區",
    "description": "成美左岸連通河濱，跑步與看夕陽的路線",
    "tags": [
      "河濱",
      "運動",
      "夕陽"
    ],
    "hours": "全天開放（夜間照明依公園處）",
    "cost": "免費",
    "geo": {
      "lat": null,
      "lng": null
    },
    "gmaps": "[https://www.google.com/maps/search/?api=1&query=松山](https://www.google.com/maps/search/?api=1&query=松山) 河濱 健康步道",
    "image_url": "https://source.unsplash.com/featured/?%E5%8F%B0%E5%8C%97%20%E5%81%A5%E5%BA%B7%E6%AD%A5%E9%81%93%E6%B2%B3%E6%BF%B1%EF%BC%88%E6%9D%BE%E5%B1%B1%E6%AE%B5%EF%BC%89"
  },
  {
    "name": "剝皮寮旁艋舺青山宮市集巷",
    "type": "cafe",
    "city": "台北",
    "district": "萬華區",
    "description": "廟埕周邊小吃老店與文創攤位不定期出現",
    "tags": [
      "廟埕",
      "小吃",
      "在地"
    ],
    "hours": "依活動與店家為準",
    "cost": "依消費",
    "geo": {
      "lat": null,
      "lng": null
    },
    "gmaps": "[https://www.google.com/maps/search/?api=1&query=艋舺青山宮](https://www.google.com/maps/search/?api=1&query=艋舺青山宮)",
    "image_url": "https://source.unsplash.com/featured/?%E5%8F%B0%E5%8C%97%20%E5%89%9D%E7%9A%AE%E5%AF%AE%E6%97%81%E8%89%8B%E8%88%BA%E9%9D%92%E5%B1%B1%E5%AE%AE%E5%B8%82%E9%9B%86%E5%B7%B7"
  },
  {
    "name": "和平青島公園（青年公園外環）",
    "type": "walk",
    "city": "台北",
    "district": "萬華區",
    "description": "運動環線外的社區綠地，適合親子滑步車",
    "tags": [
      "公園",
      "親子",
      "散步"
    ],
    "hours": "05:00–22:00（以現場公告為準）",
    "cost": "免費",
    "geo": {
      "lat": null,
      "lng": null
    },
    "gmaps": "[https://www.google.com/maps/search/?api=1&query=和平青島公園](https://www.google.com/maps/search/?api=1&query=和平青島公園) 萬華",
    "image_url": "https://source.unsplash.com/featured/?%E5%8F%B0%E5%8C%97%20%E5%92%8C%E5%B9%B3%E9%9D%92%E5%B3%B6%E5%85%AC%E5%9C%92%EF%BC%88%E9%9D%92%E5%B9%B4%E5%85%AC%E5%9C%92%E5%A4%96%E7%92%B0%EF%BC%89"
  },
  {
    "name": "東三水街市場清晨散步",
    "type": "cafe",
    "city": "台北",
    "district": "萬華區",
    "description": "傳統市場的生活風景，早餐選擇豐富",
    "tags": [
      "市場",
      "早餐",
      "在地"
    ],
    "hours": "清晨至中午（多數攤商）",
    "cost": "依消費",
    "geo": {
      "lat": null,
      "lng": null
    },
    "gmaps": "[https://www.google.com/maps/search/?api=1&query=東三水街市場](https://www.google.com/maps/search/?api=1&query=東三水街市場)",
    "image_url": "https://source.unsplash.com/featured/?%E5%8F%B0%E5%8C%97%20%E6%9D%B1%E4%B8%89%E6%B0%B4%E8%A1%97%E5%B8%82%E5%A0%B4%E6%B8%85%E6%99%A8%E6%95%A3%E6%AD%A5"
  },
  {
    "name": "芝山文化生態綠園",
    "type": "walk",
    "city": "台北",
    "district": "士林區",
    "description": "都市中的自然教室，保留原始林相與步道",
    "tags": [
      "生態",
      "步道",
      "教育"
    ],
    "hours": "依園區公告（週一休）",
    "cost": "依票價或免費日",
    "geo": {
      "lat": null,
      "lng": null
    },
    "gmaps": "[https://www.google.com/maps/search/?api=1&query=芝山文化生態綠園](https://www.google.com/maps/search/?api=1&query=芝山文化生態綠園)",
    "image_url": "https://source.unsplash.com/featured/?%E5%8F%B0%E5%8C%97%20%E8%8A%9D%E5%B1%B1%E6%96%87%E5%8C%96%E7%94%9F%E6%85%8B%E7%B6%A0%E5%9C%92"
  },
  {
    "name": "天母河濱棒球場周邊",
    "type": "walk",
    "city": "台北",
    "district": "士林區",
    "description": "河濱綠地與球場氛圍，假日常見親子運動",
    "tags": [
      "河濱",
      "運動",
      "親子"
    ],
    "hours": "全天開放（球場依預約）",
    "cost": "免費（設施另計）",
    "geo": {
      "lat": null,
      "lng": null
    },
    "gmaps": "[https://www.google.com/maps/search/?api=1&query=天母河濱](https://www.google.com/maps/search/?api=1&query=天母河濱) 棒球場",
    "image_url": "https://source.unsplash.com/featured/?%E5%8F%B0%E5%8C%97%20%E5%A4%A9%E6%AF%8D%E6%B2%B3%E6%BF%B1%E6%A3%92%E7%90%83%E5%A0%B4%E5%91%A8%E9%82%8A"
  },
  {
    "name": "蘭雅公園花海草坡",
    "type": "walk",
    "city": "台北",
    "district": "士林區",
    "description": "春季花海與大草地，非常適合野餐",
    "tags": [
      "公園",
      "季節",
      "野餐"
    ],
    "hours": "05:00–22:00（以現場公告為準）",
    "cost": "免費",
    "geo": {
      "lat": null,
      "lng": null
    },
    "gmaps": "[https://www.google.com/maps/search/?api=1&query=蘭雅公園](https://www.google.com/maps/search/?api=1&query=蘭雅公園)",
    "image_url": "https://source.unsplash.com/featured/?%E5%8F%B0%E5%8C%97%20%E8%98%AD%E9%9B%85%E5%85%AC%E5%9C%92%E8%8A%B1%E6%B5%B7%E8%8D%89%E5%9D%A1"
  },
  {
    "name": "瀧乃湯溫泉（舊北投）",
    "type": "spot",
    "city": "台北",
    "district": "北投區",
    "description": "老字號公共湯屋，感受北投最在地的溫泉文化",
    "tags": [
      "溫泉",
      "在地",
      "放鬆"
    ],
    "hours": "依店家公告",
    "cost": "依票價",
    "geo": {
      "lat": null,
      "lng": null
    },
    "gmaps": "[https://www.google.com/maps/search/?api=1&query=瀧乃湯](https://www.google.com/maps/search/?api=1&query=瀧乃湯) 北投",
    "image_url": "https://source.unsplash.com/featured/?%E5%8F%B0%E5%8C%97%20%E7%80%A7%E4%B9%83%E6%B9%AF%E6%BA%AB%E6%B3%89%EF%BC%88%E8%88%8A%E5%8C%97%E6%8A%95%EF%BC%89"
  },
  {
    "name": "復興崗河濱觀景平台",
    "type": "walk",
    "city": "台北",
    "district": "北投區",
    "description": "觀音山與關渡平原視野絕佳，夕陽色溫漂亮",
    "tags": [
      "河濱",
      "夕陽",
      "拍照"
    ],
    "hours": "全天開放",
    "cost": "免費",
    "geo": {
      "lat": null,
      "lng": null
    },
    "gmaps": "[https://www.google.com/maps/search/?api=1&query=復興崗](https://www.google.com/maps/search/?api=1&query=復興崗) 河濱 觀景平台",
    "image_url": "https://source.unsplash.com/featured/?%E5%8F%B0%E5%8C%97%20%E5%BE%A9%E8%88%88%E5%B4%97%E6%B2%B3%E6%BF%B1%E8%A7%80%E6%99%AF%E5%B9%B3%E5%8F%B0"
  },
  {
    "name": "北投中心新村（眷村文化園區）",
    "type": "spot",
    "city": "台北",
    "district": "北投區",
    "description": "眷村聚落保存與展覽，漫步老屋巷弄",
    "tags": [
      "眷村",
      "歷史",
      "展覽"
    ],
    "hours": "依園區公告",
    "cost": "免費或依票價",
    "geo": {
      "lat": null,
      "lng": null
    },
    "gmaps": "[https://www.google.com/maps/search/?api=1&query=北投](https://www.google.com/maps/search/?api=1&query=北投) 中心新村",
    "image_url": "https://source.unsplash.com/featured/?%E5%8F%B0%E5%8C%97%20%E5%8C%97%E6%8A%95%E4%B8%AD%E5%BF%83%E6%96%B0%E6%9D%91%EF%BC%88%E7%9C%B7%E6%9D%91%E6%96%87%E5%8C%96%E5%9C%92%E5%8D%80%EF%BC%89"
  },
  {
    "name": "大溝溪生態治水園區",
    "type": "walk",
    "city": "台北",
    "district": "內湖區",
    "description": "濕地與滯洪池結合的自然步道，四季各有景緻",
    "tags": [
      "生態",
      "步道",
      "親子"
    ],
    "hours": "全天開放",
    "cost": "免費",
    "geo": {
      "lat": null,
      "lng": null
    },
    "gmaps": "[https://www.google.com/maps/search/?api=1&query=大溝溪](https://www.google.com/maps/search/?api=1&query=大溝溪) 生態治水園區",
    "image_url": "https://source.unsplash.com/featured/?%E5%8F%B0%E5%8C%97%20%E5%A4%A7%E6%BA%9D%E6%BA%AA%E7%94%9F%E6%85%8B%E6%B2%BB%E6%B0%B4%E5%9C%92%E5%8D%80"
  },
  {
    "name": "瑞光路夜景天橋（行善路口）",
    "type": "walk",
    "city": "台北",
    "district": "內湖區",
    "description": "高架道路交會處的夜景拍攝點，車軌光影迷人",
    "tags": [
      "夜景",
      "拍照",
      "城市"
    ],
    "hours": "全天開放（注意安全）",
    "cost": "免費",
    "geo": {
      "lat": null,
      "lng": null
    },
    "gmaps": "[https://www.google.com/maps/search/?api=1&query=瑞光路](https://www.google.com/maps/search/?api=1&query=瑞光路) 天橋 行善路",
    "image_url": "https://source.unsplash.com/featured/?%E5%8F%B0%E5%8C%97%20%E7%91%9E%E5%85%89%E8%B7%AF%E5%A4%9C%E6%99%AF%E5%A4%A9%E6%A9%8B%EF%BC%88%E8%A1%8C%E5%96%84%E8%B7%AF%E5%8F%A3%EF%BC%89"
  },
  {
    "name": "成功市場與成功公園",
    "type": "cafe",
    "city": "台北",
    "district": "內湖區",
    "description": "早市補給＋旁邊公園休憩，一日輕旅行起點",
    "tags": [
      "市場",
      "早午餐",
      "公園"
    ],
    "hours": "市場清晨至中午；公園全天",
    "cost": "依消費／免費",
    "geo": {
      "lat": null,
      "lng": null
    },
    "gmaps": "[https://www.google.com/maps/search/?api=1&query=成功市場](https://www.google.com/maps/search/?api=1&query=成功市場) 內湖",
    "image_url": "https://source.unsplash.com/featured/?%E5%8F%B0%E5%8C%97%20%E6%88%90%E5%8A%9F%E5%B8%82%E5%A0%B4%E8%88%87%E6%88%90%E5%8A%9F%E5%85%AC%E5%9C%92"
  },
  {
    "name": "四獸山虎山峰稜線",
    "type": "walk",
    "city": "台北",
    "district": "南港區",
    "description": "相對冷門的稜線視野，能遠眺基隆河谷",
    "tags": [
      "登山",
      "景觀",
      "戶外"
    ],
    "hours": "全天開放（注意天候）",
    "cost": "免費",
    "geo": {
      "lat": null,
      "lng": null
    },
    "gmaps": "[https://www.google.com/maps/search/?api=1&query=四獸山](https://www.google.com/maps/search/?api=1&query=四獸山) 虎山峰 稜線",
    "image_url": "https://source.unsplash.com/featured/?%E5%8F%B0%E5%8C%97%20%E5%9B%9B%E7%8D%B8%E5%B1%B1%E8%99%8E%E5%B1%B1%E5%B3%B0%E7%A8%9C%E7%B7%9A"
  },
  {
    "name": "成美右岸河濱（南港段）",
    "type": "walk",
    "city": "台北",
    "district": "南港區",
    "description": "河濱散步看飛機與夕陽，連接松山機場航道視角",
    "tags": [
      "河濱",
      "夕陽",
      "飛機"
    ],
    "hours": "全天開放",
    "cost": "免費",
    "geo": {
      "lat": null,
      "lng": null
    },
    "gmaps": "[https://www.google.com/maps/search/?api=1&query=成美右岸](https://www.google.com/maps/search/?api=1&query=成美右岸) 南港",
    "image_url": "https://source.unsplash.com/featured/?%E5%8F%B0%E5%8C%97%20%E6%88%90%E7%BE%8E%E5%8F%B3%E5%B2%B8%E6%B2%B3%E6%BF%B1%EF%BC%88%E5%8D%97%E6%B8%AF%E6%AE%B5%EF%BC%89"
  },
  {
    "name": "南港茶葉製造示範場（隱藏版打卡點）",
    "type": "spot",
    "city": "台北",
    "district": "南港區",
    "description": "保留茶業文化的歷史建物，不定期展覽活動",
    "tags": [
      "茶業",
      "歷史",
      "文化"
    ],
    "hours": "依場館公告",
    "cost": "免費或依票價",
    "geo": {
      "lat": null,
      "lng": null
    },
    "gmaps": "[https://www.google.com/maps/search/?api=1&query=南港](https://www.google.com/maps/search/?api=1&query=南港) 茶葉製造示範場",
    "image_url": "https://source.unsplash.com/featured/?%E5%8F%B0%E5%8C%97%20%E5%8D%97%E6%B8%AF%E8%8C%B6%E8%91%89%E8%A3%BD%E9%80%A0%E7%A4%BA%E7%AF%84%E5%A0%B4%EF%BC%88%E9%9A%B1%E8%97%8F%E7%89%88%E6%89%93%E5%8D%A1%E9%BB%9E%EF%BC%89"
  },
  {
    "name": "木柵貓空樟樹步道",
    "type": "walk",
    "city": "台北",
    "district": "文山區",
    "description": "茶園之間的林蔭步道，串連多處觀景台",
    "tags": [
      "步道",
      "茶園",
      "景觀"
    ],
    "hours": "全天開放",
    "cost": "免費",
    "geo": {
      "lat": null,
      "lng": null
    },
    "gmaps": "[https://www.google.com/maps/search/?api=1&query=樟樹步道](https://www.google.com/maps/search/?api=1&query=樟樹步道) 貓空",
    "image_url": "https://source.unsplash.com/featured/?%E5%8F%B0%E5%8C%97%20%E6%9C%A8%E6%9F%B5%E8%B2%93%E7%A9%BA%E6%A8%9F%E6%A8%B9%E6%AD%A5%E9%81%93"
  },
  {
    "name": "景美溪河濱（萬慶橋至文山段）",
    "type": "walk",
    "city": "台北",
    "district": "文山區",
    "description": "沿溪平坦好走，適合黃昏散步與單車",
    "tags": [
      "河濱",
      "單車",
      "夕陽"
    ],
    "hours": "全天開放（夜間照明依公園處）",
    "cost": "免費",
    "geo": {
      "lat": null,
      "lng": null
    },
    "gmaps": "[https://www.google.com/maps/search/?api=1&query=景美溪](https://www.google.com/maps/search/?api=1&query=景美溪) 河濱 文山",
    "image_url": "https://source.unsplash.com/featured/?%E5%8F%B0%E5%8C%97%20%E6%99%AF%E7%BE%8E%E6%BA%AA%E6%B2%B3%E6%BF%B1%EF%BC%88%E8%90%AC%E6%85%B6%E6%A9%8B%E8%87%B3%E6%96%87%E5%B1%B1%E6%AE%B5%EF%BC%89"
  },
  {
    "name": "萬興公園台北小巨蛋滑輪場（文山）",
    "type": "walk",
    "city": "台北",
    "district": "文山區",
    "description": "社區運動設施完善，親子放電首選",
    "tags": [
      "親子",
      "運動",
      "公園"
    ],
    "hours": "05:00–22:00（以現場公告為準）",
    "cost": "免費",
    "geo": {
      "lat": null,
      "lng": null
    },
    "gmaps": "[https://www.google.com/maps/search/?api=1&query=萬興公園](https://www.google.com/maps/search/?api=1&query=萬興公園) 文山",
    "image_url": "https://source.unsplash.com/featured/?%E5%8F%B0%E5%8C%97%20%E8%90%AC%E8%88%88%E5%85%AC%E5%9C%92%E5%8F%B0%E5%8C%97%E5%B0%8F%E5%B7%A8%E8%9B%8B%E6%BB%91%E8%BC%AA%E5%A0%B4%EF%BC%88%E6%96%87%E5%B1%B1%EF%BC%89"
  }
]